,Player,birth_date,birth_city,birth_state,Lat_bcity,Lng_bcity
0,Alaa Abdelnaby,"June 24, 1968",Cairo,Egypt,30.0444196,31.2357116
1,Zaid Abdul-Aziz,"April 7, 1946",Brooklyn,New York,40.6781784,-73.9441579
2,Tariq Abdul-Wahad,"November 3, 1974",Maisons Alfort,France,48.801148,2.429443
3,Shareef Abdur-Rahim,"December 11, 1976",Marietta,Georgia,33.95260200000001,-84.5499327
4,Tom Abernethy,"May 6, 1954",South Bend,Indiana,41.6763545,-86.25198979999999
5,Alex Abrines,"August 1, 1993",Palma de Mallorca,Spain,39.5696005,2.6501603
6,Alex Acker,"January 21, 1983",Compton,California,33.8958492,-118.2200712
7,Don Ackerman,"September 4, 1930",New York,New York,40.7127753,-74.0059728
8,Mark Acres,"November 15, 1962",Inglewood,California,33.9616801,-118.3531311
9,Quincy Acy,"October 6, 1990",Tyler,Texas,32.3512601,-95.30106239999999
10,Alvan Adams,"July 19, 1954",Lawrence,Kansas,38.9716689,-95.2352501
11,Don Adams,"November 27, 1947",Atlanta,Georgia,33.7489954,-84.3879824
12,Hassan Adams,"June 20, 1984",Inglewood,California,33.9616801,-118.3531311
13,Jordan Adams,"July 8, 1994",Atlanta,Georgia,33.7489954,-84.3879824
14,Michael Adams,"January 19, 1963",Hartford,Connecticut,41.7658043,-72.6733723
15,Steven Adams,"July 20, 1993",Rotorua,New Zealand,-38.1368478,176.2497461
16,Rafael Addison,"July 22, 1964",Jersey City,New Jersey,40.7177545,-74.0431435
17,Rick Adelman,"June 16, 1946",Lynwood,California,33.930293,-118.2114603
18,Jeff Adrien,"February 10, 1986",Brookline,Massachusetts,42.33176419999999,-71.1211635
19,Arron Afflalo,"October 15, 1985",Los Angeles,California,34.0522342,-118.2436849
20,Maurice Ager,"February 9, 1984",Detroit,Michigan,42.331427,-83.0457538
21,Mark Aguirre,"December 10, 1959",Chicago,Illinois,41.8781136,-87.6297982
22,Blake Ahearn,"May 27, 1984",St. Louis,Missouri,38.6270025,-90.19940419999999
23,Danny Ainge,"March 17, 1959",Eugene,Oregon,44.0520691,-123.0867536
24,Alexis Ajinca,"May 6, 1988",Saint-Etienne,France,45.439695,4.3871779
25,Henry Akin,"July 31, 1944",Detroit,Michigan,42.331427,-83.0457538
26,Josh Akognon,"February 10, 1986",Greenbrae,California,37.9476326,-122.5252604
27,Solomon Alabi,"March 21, 1988",Kaduna,Nigeria,10.5104642,7.4165053
28,Mark Alarie,"December 11, 1963",Phoenix,Arizona,33.4483771,-112.0740373
29,Furkan Aldemir,"August 9, 1991",Konak,Turkey,38.4144805,27.1441183
30,Cole Aldrich,"October 31, 1988",Burnsville,Minnesota,44.7677424,-93.27772259999999
31,LaMarcus Aldridge,"July 19, 1985",Dallas,Texas,32.7766642,-96.79698789999999
32,Chuck Aleksinas,"February 26, 1959",Litchfield,Connecticut,41.7472642,-73.1887165
33,Cliff Alexander,"November 16, 1995",Chicago,Illinois,41.8781136,-87.6297982
34,Cory Alexander,"June 22, 1973",Waynesboro,Virginia,38.0684692,-78.8894682
35,Gary Alexander,"November 1, 1969",Jacksonville,Florida,30.3321838,-81.65565099999999
36,Joe Alexander,"December 26, 1986",Kaohsiung,Taiwan,22.6272784,120.3014353
37,Victor Alexander,"August 31, 1969",Detroit,Michigan,42.331427,-83.0457538
38,Steve Alford,"November 23, 1964",Franklin,Indiana,39.4806055,-86.0549863
39,Jerome Allen,"January 28, 1973",Philadelphia,Pennsylvania,39.9525839,-75.1652215
40,Lavoy Allen,"February 4, 1989",Morrisville,Pennsylvania,40.2086471,-74.77461819999999
41,Lucius Allen,"September 26, 1947",Kansas City,Kansas,39.11553139999999,-94.62678729999999
42,Malik Allen,"June 27, 1978",Willingboro,New Jersey,40.028848,-74.89164579999999
43,Randy Allen,"January 26, 1965",Milton,Florida,30.6324149,-87.03968809999999
44,Tony Allen,"January 11, 1982",Chicago,Illinois,41.8781136,-87.6297982
45,Lance Allred,"February 2, 1981",Salt Lake City,Utah,40.7607793,-111.8910474
46,Darrell Allums,"September 12, 1958",Los Angeles,California,34.0522342,-118.2436849
47,Morris Almond,"February 2, 1985",Dalton,Georgia,34.7698021,-84.9702228
48,Derrick Alston,"August 20, 1972",Bronx,New York,40.8447819,-73.8648268
49,Rafer Alston,"July 24, 1976",New York,New York,40.7127753,-74.0059728
50,Peter Aluma,"April 23, 1973",Lagos,Nigeria,6.5243793,3.3792057
51,John Amaechi,"November 26, 1970",Boston,Massachusetts,42.3600825,-71.0588801
52,Ashraf Amaya,"November 23, 1971",Oak Park,Illinois,41.8850317,-87.7845025
53,Al-Farouq Aminu,"September 21, 1990",Atlanta,Georgia,33.7489954,-84.3879824
54,Lou Amundson,"December 7, 1982",Ventura,California,34.2804923,-119.2945199
55,Bob Anderegg,"August 24, 1937",Monroe,Wisconsin,42.60111939999999,-89.6384532
56,Chris Andersen,"July 7, 1978",Long Beach,California,33.7700504,-118.1937395
57,Alan Anderson,"October 16, 1982",Minneapolis,Minnesota,44.977753,-93.2650108
58,Dan Anderson,"February 15, 1943",Minneapolis,Minnesota,44.977753,-93.2650108
59,Derek Anderson,"July 18, 1974",Louisville,Kentucky,38.2526647,-85.7584557
60,Dwight Anderson,"December 28, 1960",Dayton,Ohio,39.7589478,-84.1916069
61,Eric Anderson,"May 26, 1970",Chicago,Illinois,41.8781136,-87.6297982
62,Greg Anderson,"June 22, 1964",Houston,Texas,29.7604267,-95.3698028
63,James Anderson,"March 25, 1989",El Dorado,Arkansas,33.20763,-92.6662674
64,Jerome Anderson,"October 9, 1953",Mullens,West Virginia,37.58316980000001,-81.38038039999999
65,Justin Anderson,"November 19, 1993",Montross,Virginia,38.0951317,-76.8274644
66,Kenny Anderson,"October 9, 1970",Queens,New York,40.7282239,-73.7948516
67,Kim Anderson,"May 12, 1955",Sedalia,Missouri,38.7044609,-93.2282613
68,Kyle Anderson,"September 20, 1993",New York,New York,40.7127753,-74.0059728
69,Michael Anderson,"March 23, 1966",Philadelphia,Pennsylvania,39.9525839,-75.1652215
70,Nick Anderson,"January 20, 1968",Chicago,Illinois,41.8781136,-87.6297982
71,Richard Anderson,"November 19, 1960",San Pedro,California,33.7360619,-118.2922461
72,Ron Anderson,"October 15, 1958",Chicago,Illinois,41.8781136,-87.6297982
73,Ryan Anderson,"May 6, 1988",Sacramento,California,38.5815719,-121.4943996
74,Shandon Anderson,"December 31, 1973",Atlanta,Georgia,33.7489954,-84.3879824
75,Willie Anderson,"January 8, 1967",Greenville,South Carolina,34.85261759999999,-82.3940104
76,Martynas Andriuskevicius,"March 12, 1986",Kaunas,Lithuania,54.8985207,23.9035965
77,Michael Ansley,"February 8, 1967",Birmingham,Alabama,33.5185892,-86.8103567
78,Chris Anstey,"January 1, 1975",Melbourne,Australia,-37.8136276,144.9630576
79,Giannis Antetokounmpo,"December 6, 1994",Athens,Greece,37.9838096,23.7275388
80,Thanasis Antetokounmpo,"July 17, 1992",Athens,Greece,37.9838096,23.7275388
81,Carmelo Anthony,"May 29, 1984",New York,New York,40.7127753,-74.0059728
82,Greg Anthony,"November 15, 1967",Las Vegas,Nevada,36.1699412,-115.1398296
83,Joel Anthony,"August 9, 1982",Montreal,Canada,45.5016889,-73.567256
84,Pero Antic,"July 29, 1982",Skopje,FYR Macedonia,41.9981294,21.4254355
85,Keith Appling,"February 13, 1992",Detroit,Michigan,42.331427,-83.0457538
86,Rafael Araujo,"August 12, 1980",Curitiba,Brazil,-25.4808762,-49.3044253
87,Robert Archibald,"March 29, 1980",Paisley,United Kingdom,55.847258,-4.440113999999999
88,Jim Ard,"September 19, 1948",Harvey,Illinois,41.6100344,-87.6467131
89,Gilbert Arenas,"January 6, 1982",Los Angeles,California,34.0522342,-118.2436849
90,Trevor Ariza,"June 30, 1985",Miami,Florida,25.7616798,-80.1917902
91,Joe Arlauckas,"July 20, 1965",Rochester,New York,43.15657789999999,-77.6088465
92,Bob Armstrong,"June 17, 1933",Detroit,Michigan,42.331427,-83.0457538
93,Brandon Armstrong,"June 16, 1980",San Francisco,California,37.7749295,-122.4194155
94,Darrell Armstrong,"June 22, 1968",Gastonia,North Carolina,35.262082,-81.18730049999999
95,Hilton Armstrong,"November 11, 1984",Peekskill,New York,41.2900939,-73.9204158
96,Tate Armstrong,"October 5, 1955",Moultrie,Georgia,31.1799407,-83.7888387
97,Jesse Arnelle,"December 30, 1933",New Rochelle,New York,40.9114882,-73.7823549
98,Jay Arnette,"December 19, 1938",Austin,Texas,30.267153,-97.7430608
99,Bob Arnzen,"November 3, 1947",Covington,Kentucky,39.0836712,-84.5085536
100,Carlos Arroyo,"July 30, 1979",Fajardo,Puerto Rico,18.3257869,-65.6523838
101,Darrell Arthur,"March 25, 1988",Dallas,Texas,32.7766642,-96.79698789999999
102,Omer Asik,"July 4, 1986",Bursa,Turkey,40.1885281,29.0609636
103,Vincent Askew,"February 28, 1966",Memphis,Tennessee,35.1495343,-90.0489801
104,Keith Askins,"December 15, 1967",Athens,Alabama,34.8028661,-86.9716741
105,Don Asmonga,"February 15, 1928",West Mifflin,Pennsylvania,40.3634026,-79.86643749999999
106,Dick Atha,"September 21, 1931",Otterbein,Indiana,40.4905905,-87.0964025
107,Chucky Atkins,"August 14, 1974",Orlando,Florida,28.5383355,-81.3792365
108,Al Attles,"November 7, 1936",Newark,New Jersey,40.735657,-74.1723667
109,Stacey Augmon,"August 1, 1968",Pasadena,California,34.1477849,-118.1445155
110,James Augustine,"February 27, 1984",Midlothian,Illinois,41.6253116,-87.7175491
111,Isaac Austin,"August 18, 1969",Gridley,California,39.3637773,-121.6935833
112,Johnny Austin,"August 31, 1944",Washington,District of Columbia,38.9071923,-77.0368707
113,Ken Austin,"July 15, 1961",Los Angeles,California,34.0522342,-118.2436849
114,Anthony Avent,"October 18, 1969",Rocky Mount,North Carolina,35.9382103,-77.7905339
115,Bird Averitt,"July 22, 1952",Hopkinsville,Kentucky,36.8656008,-87.4886186
116,William Avery,"August 8, 1979",Augusta,Georgia,33.4734978,-82.0105148
117,Dennis Awtrey,"February 22, 1948",Hollywood,California,34.0928092,-118.3286614
118,Gustavo Ayon,"April 1, 1985",Tepic,Mexico,21.5041651,-104.8945887
119,Kelenna Azubuike,"December 16, 1983",London,United Kingdom,51.5073509,-0.1277583
120,Chris Babb,"February 14, 1990",Arlington,Texas,32.735687,-97.10806559999999
121,Luke Babbitt,"June 20, 1989",Cincinnati,Ohio,39.1031182,-84.5120196
122,Milos Babic,"November 23, 1968",Kraljevo,Serbia,43.7238483,20.6872542
123,Jim Baechtold,"December 9, 1927",McKeesport,Pennsylvania,40.3470671,-79.8641232
124,John Bagley,"April 23, 1960",Bridgeport,Connecticut,41.1792258,-73.1894384
125,Carl Bailey,"April 23, 1958",Birmingham,Alabama,33.5185892,-86.8103567
126,Gus Bailey,"February 18, 1951",Gibson,North Carolina,34.7590477,-79.6106104
127,James Bailey,"May 21, 1957",Dublin,Georgia,32.5404447,-82.90375399999999
128,Thurl Bailey,"April 7, 1961",Washington,District of Columbia,38.9071923,-77.0368707
129,Toby Bailey,"November 19, 1975",Los Angeles,California,34.0522342,-118.2436849
130,Cameron Bairstow,"December 7, 1990",Brisbane,Australia,-27.4697707,153.0251235
131,LaMark Baker,"November 11, 1969",Dayton,Ohio,39.7589478,-84.1916069
132,Maurice Baker,"July 28, 1979",Granite City,Illinois,38.7014389,-90.14871989999999
133,Ron Baker,"March 30, 1993",Hays,Kansas,38.8791783,-99.3267702
134,Vin Baker,"November 23, 1971",Lake Wales,Florida,27.9014133,-81.58590989999999
135,Wade Baldwin,"March 29, 1996",Belle Mead,New Jersey,40.4675835,-74.6628114
136,Renaldo Balkman,"July 14, 1984",Staten Island,New York,40.5795317,-74.1502007
137,Cedric Ball,"April 16, 1968",Worcester,Massachusetts,42.2625932,-71.8022934
138,Greg Ballard,"January 29, 1955",Los Angeles,California,34.0522342,-118.2436849
139,Gene Banks,"May 15, 1959",Philadelphia,Pennsylvania,39.9525839,-75.1652215
140,Marcus Banks,"November 19, 1981",Las Vegas,Nevada,36.1699412,-115.1398296
141,Ken Bannister,"April 1, 1960",Baltimore,Maryland,39.2903848,-76.6121893
142,Mike Bantom,"December 3, 1951",Philadelphia,Pennsylvania,39.9525839,-75.1652215
143,Leandro Barbosa,"November 28, 1982",San Paulo,Brazil,-23.5505199,-46.63330939999999
144,Steve Bardo,"April 5, 1968",Henderson,Kentucky,37.8361538,-87.59001339999999
145,Andrea Bargnani,"October 26, 1985",Rome,Italy,41.9027835,12.4963655
146,Cliff Barker,"January 15, 1921",Yorktown,Indiana,40.1736547,-85.4941396
147,Tom Barker,"March 11, 1955",Harlingen,Texas,26.1906306,-97.69610259999999
148,Erick Barkley,"February 21, 1978",Queens,New York,40.7282239,-73.7948516
149,Jim Barnes,"April 13, 1941",Tuckerman,Arkansas,35.7306327,-91.19846009999999
150,Marvin Barnes,"July 27, 1952",Providence,Rhode Island,41.8239891,-71.4128343
151,Dick Barnett,"October 2, 1936",Gary,Indiana,41.6020403,-87.3371523
152,John Barnhill,"March 20, 1938",Sturgis,Kentucky,37.5467135,-87.983914
153,Norton Barnhill,"July 15, 1953",Winston-Salem,North Carolina,36.09985959999999,-80.244216
154,Mike Barr,"October 19, 1950",Canton,Ohio,40.79894729999999,-81.378447
155,Andre Barrett,"February 21, 1982",Bronx,New York,40.8447819,-73.8648268
156,Ernie Barrett,"August 27, 1929",Pratt,Kansas,37.6439071,-98.73759109999999
157,Earl Barron,"August 14, 1981",Clarksdale,Mississippi,34.2001086,-90.5709323
158,Dana Barros,"April 13, 1967",Boston,Massachusetts,42.3600825,-71.0588801
159,Brent Barry,"December 31, 1971",Hempstead,New York,40.7062128,-73.6187397
160,Drew Barry,"February 17, 1973",Oakland,California,37.8043514,-122.2711639
161,Jon Barry,"July 25, 1969",Oakland,California,37.8043514,-122.2711639
162,Will Barton,"January 6, 1991",Baltimore,Maryland,39.2903848,-76.6121893
163,Eddie Basden,"February 15, 1983",New York,New York,40.7127753,-74.0059728
164,Jerry Baskerville,"November 10, 1951",Philadelphia,Pennsylvania,39.9525839,-75.1652215
165,Brandon Bass,"April 30, 1985",Baton Rouge,Louisiana,30.4514677,-91.18714659999999
166,Tim Bassett,"April 1, 1951",Washington,District of Columbia,38.9071923,-77.0368707
167,Maceo Baston,"May 29, 1975",Corsicana,Texas,32.0954304,-96.46887269999999
168,Mengke Bateer,"November 20, 1975",Beijing,China,39.90419989999999,116.4073963
169,Esteban Batista,"September 2, 1983",Montevideo,Uruguay,-34.9011127,-56.16453139999999
170,Mike Batiste,"November 21, 1977",Long Beach,California,33.7700504,-118.1937395
171,Tony Battie,"February 11, 1976",Dallas,Texas,32.7766642,-96.79698789999999
172,Shane Battier,"September 9, 1978",Birmingham,Michigan,42.5467012,-83.21131919999999
173,John Battle,"November 9, 1962",Washington,District of Columbia,38.9071923,-77.0368707
174,Kenny Battle,"October 10, 1964",Aurora,Illinois,41.7605849,-88.32007150000001
175,Dave Batton,"March 26, 1956",Baltimore,Maryland,39.2903848,-76.6121893
176,Nicolas Batum,"December 14, 1988",Lisieux,France,49.145922,0.227849
177,Johnny Baum,"June 17, 1946",Philadelphia,Pennsylvania,39.9525839,-75.1652215
178,Lonny Baxter,"January 27, 1979",Silver Spring,Maryland,38.99066570000001,-77.026088
179,Jerryd Bayless,"August 20, 1988",Phoenix,Arizona,33.4483771,-112.0740373
180,Aron Baynes,"December 9, 1986",Gisborne,New Zealand,-38.662334,178.017649
181,Sergei Bazarevich,"March 16, 1965",Moscow,Russia,55.755826,37.6172999
182,Kent Bazemore,"July 1, 1989",Kelford,North Carolina,36.1796007,-77.2235757
183,Bradley Beal,"June 28, 1993",St. Louis,Missouri,38.6270025,-90.19940419999999
184,Butch Beard,"May 4, 1947",Hardinsburg,Kentucky,37.7800591,-86.4605337
185,Ralph Beard,"December 2, 1927",Hardinsburg,Kentucky,37.7800591,-86.4605337
186,Jerome Beasley,"May 17, 1980",Compton,California,33.8958492,-118.2200712
187,Malik Beasley,"November 26, 1996",Atlanta,Georgia,33.7489954,-84.3879824
188,Michael Beasley,"January 9, 1989",Frederick,Maryland,39.41426879999999,-77.4105409
189,Rodrigue Beaubois,"February 24, 1988",Pointe-a-Pitre,Guadeloupe,16.2376869,-61.5340424
190,Byron Beck,"January 25, 1945",Ellensburg,Washington,46.9965144,-120.5478474
191,Corey Beck,"May 27, 1971",Memphis,Tennessee,35.1495343,-90.0489801
192,Ernie Beck,"December 11, 1931",Philadelphia,Pennsylvania,39.9525839,-75.1652215
193,William Bedford,"December 14, 1963",Memphis,Tennessee,35.1495343,-90.0489801
194,Ron Behagen,"January 14, 1951",New York,New York,40.7127753,-74.0059728
195,Elmer Behnke,"February 3, 1929",Rockford,Illinois,42.2711311,-89.0939952
196,Marco Belinelli,"March 25, 1986",Bologna,Italy,44.494887,11.3426162
197,Charlie Bell,"March 12, 1979",Flint,Michigan,43.0125274,-83.6874562
198,Dennis Bell,"June 2, 1951",Cincinnati,Ohio,39.1031182,-84.5120196
199,Raja Bell,"September 19, 1976",St. Croix,U.S. Virgin Islands,17.7245968,-64.83479919999999
200,Troy Bell,"November 10, 1980",Minneapolis,Minnesota,44.977753,-93.2650108
201,Whitey Bell,"September 13, 1932",Monticello,Kentucky,36.8297937,-84.8491126
202,DeAndre' Bembry,"July 4, 1994",Charlotte,North Carolina,35.2270869,-80.8431267
203,Leon Benbow,"July 23, 1950",Columbia,South Carolina,34.0007104,-81.0348144
204,Dragan Bender,"November 17, 1997",Capljina,Bosnia and Herzegovina,43.11182669999999,17.7054838
205,Jonathan Bender,"January 30, 1981",Picayune,Mississippi,30.5254692,-89.67950839999999
206,Jerrelle Benimon,"August 1, 1991",Warrenton,Virginia,38.7134516,-77.7952712
207,Benoit Benjamin,"November 22, 1964",Monroe,Louisiana,32.5093109,-92.1193012
208,Corey Benjamin,"February 24, 1978",Compton,California,33.8958492,-118.2200712
209,Anthony Bennett,"March 14, 1993",Toronto,Canada,43.653226,-79.3831843
210,Elmer Bennett,"February 13, 1970",Evanston,Illinois,42.0450722,-87.68769689999999
211,Mario Bennett,"August 1, 1973",Denton,Texas,33.2148412,-97.13306829999999
212,Mel Bennett,"January 4, 1955",Pittsburgh,Pennsylvania,40.44062479999999,-79.9958864
213,Tony Bennett,"June 1, 1969",Green Bay,Wisconsin,44.5133188,-88.0132958
214,Winston Bennett,"February 9, 1965",Louisville,Kentucky,38.2526647,-85.7584557
215,David Benoit,"May 9, 1968",Lafayette,Louisiana,30.2240897,-92.0198427
216,Kent Benson,"December 27, 1954",New Castle,Indiana,39.928935,-85.3702476
217,Gary Bergen,"July 16, 1932",Independence,Missouri,39.0911161,-94.41550679999999
218,Ricky Berry,"October 6, 1964",Lansing,Michigan,42.732535,-84.5555347
219,Walter Berry,"May 14, 1964",New York,New York,40.7127753,-74.0059728
220,Davis Bertans,"November 12, 1992",Valmiera,Latvia,57.5384659,25.4263618
221,Del Beshore,"November 29, 1956",Mechanicsburg,Pennsylvania,40.2132692,-77.0080309
222,Travis Best,"July 12, 1972",Springfield,Massachusetts,42.1014831,-72.589811
223,Patrick Beverley,"July 12, 1988",Chicago,Illinois,41.8781136,-87.6297982
224,Sim Bhullar,"December 2, 1992",Ontario,Canada,51.253775,-85.323214
225,Al Bianchi,"March 26, 1932",Long Island City,New York,40.744679,-73.9485424
226,Henry Bibby,"November 24, 1949",Franklinton,North Carolina,36.1018163,-78.4580543
227,Mike Bibby,"May 13, 1978",Cherry Hill,New Jersey,39.926813,-75.0246312
228,Andris Biedrins,"April 2, 1986",Riga,Latvia,56.9496487,24.1051865
229,Bob Bigelow,"December 26, 1953",Boston,Massachusetts,42.3600825,-71.0588801
230,Chauncey Billups,"September 25, 1976",Denver,Colorado,39.7392358,-104.990251
231,Joe Binion,"March 26, 1961",Rochester,New York,43.15657789999999,-77.6088465
232,Jerry Bird,"February 2, 1935",Corbin,Kentucky,36.9486986,-84.0968761
233,Otis Birdsong,"December 9, 1955",Winter Haven,Florida,28.0222435,-81.7328567
234,Bismack Biyombo,"August 28, 1992",Lubumbashi,Democratic Republic of the Congo,-11.6876026,27.5026174
235,Nemanja Bjelica,"May 9, 1988",Belgrade,Serbia,44.786568,20.4489216
236,Uwe Blab,"March 26, 1962",Munich,Germany,48.1351253,11.5819805
237,Charlie Black,"June 15, 1921",Arco,Idaho,43.6365693,-113.3002844
238,Norman Black,"November 12, 1957",Baltimore,Maryland,39.2903848,-76.6121893
239,Tarik Black,"November 22, 1991",Memphis,Tennessee,35.1495343,-90.0489801
240,Rolando Blackman,"February 26, 1959",Panama City,Panama,8.9823792,-79.51986959999999
241,Alex Blackwell,"June 27, 1970",Toms River,New Jersey,39.9537358,-74.1979458
242,Cory Blackwell,"March 27, 1963",Chicago,Illinois,41.8781136,-87.6297982
243,James Blackwell,"February 25, 1968",Mount Kisco,New York,41.2042616,-73.72707609999999
244,Nate Blackwell,"February 15, 1965",Philadelphia,Pennsylvania,39.9525839,-75.1652215
245,DeJuan Blair,"April 22, 1989",Pittsburgh,Pennsylvania,40.44062479999999,-79.9958864
246,Steve Blake,"February 26, 1980",Hollywood,Florida,26.0112014,-80.1494901
247,Will Blalock,"September 8, 1983",Boston,Massachusetts,42.3600825,-71.0588801
248,George Blaney,"November 12, 1939",Jersey City,New Jersey,40.7177545,-74.0431435
249,Lance Blanks,"September 9, 1966",Del Rio,Texas,29.3708857,-100.8958674
250,Ricky Blanton,"April 21, 1966",Miami,Florida,25.7616798,-80.1917902
251,Andray Blatche,"August 22, 1986",Syracuse,New York,43.0481221,-76.14742439999999
252,Mookie Blaylock,"March 20, 1967",Garland,Texas,32.912624,-96.63888329999999
253,Eric Bledsoe,"December 9, 1989",Birmingham,Alabama,33.5185892,-86.8103567
254,John Block,"April 16, 1944",Los Angeles,California,34.0522342,-118.2436849
255,Corie Blount,"January 4, 1969",Monrovia,California,34.1442616,-118.0019482
256,Mark Blount,"November 30, 1975",Dobbs Ferry,New York,41.0145418,-73.87263500000002
257,Vander Blue,"July 17, 1992",Milwaukee,Wisconsin,43.0389025,-87.9064736
258,Ray Blume,"September 23, 1958",Valdosta,Georgia,30.8327022,-83.2784851
259,Nelson Bobb,"February 25, 1924",Philadelphia,Pennsylvania,39.9525839,-75.1652215
260,Tony Bobbitt,"October 22, 1979",Daytona,Florida,29.2108147,-81.0228331
261,Bucky Bockhorn,"July 8, 1933",Campbell Hill,Illinois,37.9300513,-89.54898519999999
262,Tom Boerwinkle,"August 23, 1945",Cleveland,Ohio,41.49932,-81.6943605
263,Keith Bogans,"May 12, 1980",Alexandria,Virginia,38.8048355,-77.0469214
264,Bojan Bogdanovic,"April 18, 1989",Belgrade,Serbia,44.786568,20.4489216
265,Muggsy Bogues,"January 9, 1965",Baltimore,Maryland,39.2903848,-76.6121893
266,Andrew Bogut,"November 28, 1984",Melbourne,Australia,-37.8136276,144.9630576
267,Etdrick Bohannon,"May 29, 1973",San Bernardino,California,34.1083449,-117.2897652
268,Manute Bol,"October 16, 1962",Gogrial,South Sudan,8.5323992,28.0991001
269,Joel Bolomboy,"January 28, 1994",Kiev,Ukraine,50.4501,30.5234
270,Phil Bond,"July 27, 1954",Louisville,Kentucky,38.2526647,-85.7584557
271,Walter Bond,"February 1, 1969",Chicago,Illinois,41.8781136,-87.6297982
272,Dexter Boney,"April 27, 1970",Wilmington,Delaware,39.744655,-75.5483909
273,Ron Bonham,"May 31, 1942",Muncie,Indiana,40.1933767,-85.3863599
274,Anthony Bonner,"June 8, 1968",St. Louis,Missouri,38.6270025,-90.19940419999999
275,Matt Bonner,"April 5, 1980",Concord,New Hampshire,43.2081366,-71.5375718
276,Devin Booker,"October 30, 1996",Grand Rapids,Michigan,42.9633599,-85.6680863
277,Melvin Booker,"August 20, 1972",Pascagoula,Mississippi,30.3657552,-88.5561272
278,Trevor Booker,"November 25, 1987",Newberry,South Carolina,34.2745833,-81.6187178
279,Josh Boone,"November 21, 1984",Mount Airy,Maryland,39.3762145,-77.154704
280,Ron Boone,"September 6, 1946",Oklahoma City,Oklahoma,35.4675602,-97.5164276
281,Calvin Booth,"May 7, 1976",Reynoldsburg,Ohio,39.9547861,-82.81211909999999
282,Keith Booth,"October 9, 1974",Baltimore,Maryland,39.2903848,-76.6121893
283,Bob Boozer,"April 26, 1937",Omaha,Nebraska,41.2565369,-95.9345034
284,Carlos Boozer,"November 20, 1981",Aschaffenburg,Germany,49.9806625,9.135555400000001
285,Curtis Borchardt,"September 13, 1980",Buffalo,New York,42.88644679999999,-78.8783689
286,Jake Bornheimer,"June 29, 1927",New Brunswick,New Jersey,40.4862157,-74.4518188
287,Lazaro Borrell,"September 20, 1972",Santa Clara,Cuba,22.424398,-79.9416549
288,Ike Borsavage,"July 25, 1924",Plymouth,Pennsylvania,41.2403596,-75.9446428
289,Vince Boryla,"March 11, 1927",East Chicago,Indiana,41.63920239999999,-87.4547635
290,Chris Bosh,"March 24, 1984",Dallas,Texas,32.7766642,-96.79698789999999
291,Jim Bostic,"January 28, 1953",Brooklyn,New York,40.6781784,-73.9441579
292,Lawrence Boston,"May 18, 1956",Cleveland,Ohio,41.49932,-81.6943605
293,Tom Boswell,"October 2, 1953",Montgomery,Alabama,32.3792233,-86.3077368
295,Don Boven,"March 6, 1925",Kalamazoo,Michigan,42.2917069,-85.5872286
296,Cal Bowdler,"March 31, 1977",Sharps,Virginia,37.8240267,-76.7007912
297,Bruce Bowen,"June 14, 1971",Merced,California,37.3021632,-120.4829677
298,Ryan Bowen,"November 20, 1975",Fort Madison,Iowa,40.6297634,-91.31453499999999
299,Anthony Bowie,"November 9, 1963",Tulsa,Oklahoma,36.1539816,-95.99277500000001
300,Sam Bowie,"March 17, 1961",Lebanon,Pennsylvania,40.3409251,-76.4113497
301,Ira Bowman,"June 11, 1973",Newark,New Jersey,40.735657,-74.1723667
302,Nate Bowman,"March 19, 1943",Fort Worth,Texas,32.7554883,-97.3307658
303,Donnie Boyce,"September 2, 1973",Chicago,Illinois,41.8781136,-87.6297982
304,Dennis Boyd,"May 21, 1954",Portsmouth,Virginia,36.8354258,-76.2982742
305,Freddie Boyd,"June 13, 1950",Bakersfield,California,35.3732921,-119.0187125
306,Ken Boyd,"March 25, 1952",Frederick,Maryland,39.41426879999999,-77.4105409
307,Earl Boykins,"June 2, 1976",Cleveland,Ohio,41.49932,-81.6943605
308,Harry Boykoff,"July 24, 1922",Brooklyn,New York,40.6781784,-73.9441579
309,Winford Boynes,"May 17, 1957",Greenville,South Carolina,34.85261759999999,-82.3940104
310,Cedric Bozeman,"March 7, 1983",Los Angeles,California,34.0522342,-118.2436849
311,Steve Bracey,"August 1, 1950",Brooklyn,New York,40.6781784,-73.9441579
312,Craig Brackins,"October 9, 1987",Los Angeles,California,34.0522342,-118.2436849
313,Gary Bradds,"July 26, 1942",Jamestown,Ohio,39.6581163,-83.7349236
314,Alonzo Bradley,"October 16, 1953",Utica,Mississippi,32.1095975,-90.62343229999999
315,Avery Bradley,"November 26, 1990",Tacoma,Washington,47.2528768,-122.4442906
316,Charles Bradley,"May 16, 1959",Havre De Grace,Maryland,39.5492792,-76.09161700000001
317,Dudley Bradley,"March 19, 1957",Baltimore,Maryland,39.2903848,-76.6121893
318,Joe Bradley,"September 24, 1928",Washington,Oklahoma,35.0589583,-97.4844761
319,Michael Bradley,"April 18, 1979",Worcester,Massachusetts,42.2625932,-71.8022934
320,Shawn Bradley,"March 22, 1972",Landstuhl,Germany,49.41414640000001,7.570905199999999
321,Mark Bradtke,"September 27, 1968",Adelaide,Australia,-34.9284989,138.6007456
322,Marques Bragg,"March 24, 1970",East Orange,New Jersey,40.767323,-74.2048677
323,Torraye Braggs,"May 15, 1976",Fresno,California,36.7377981,-119.7871247
324,Adrian Branch,"November 17, 1963",Washington,District of Columbia,38.9071923,-77.0368707
325,Elton Brand,"March 11, 1979",Cortlandt Manor,New York,41.2804112,-73.87147519999999
326,Terrell Brandon,"May 20, 1970",Portland,Oregon,45.5051064,-122.6750261
327,Brad Branson,"September 24, 1958",Harvey,Illinois,41.6100344,-87.6467131
328,Jesse Branson,"January 7, 1942",Burlington,North Carolina,36.0956918,-79.43779909999999
329,Jim Brasco,"February 3, 1931",Brooklyn,New York,40.6781784,-73.9441579
330,Mike Bratz,"October 17, 1955",Lompoc,California,34.6391501,-120.4579409
331,Carl Braun,"September 25, 1927",Brooklyn,New York,40.6781784,-73.9441579
332,Tim Breaux,"September 19, 1970",Baton Rouge,Louisiana,30.4514677,-91.18714659999999
333,Pete Brennan,"September 23, 1936",Brooklyn,New York,40.6781784,-73.9441579
334,Randy Breuer,"October 11, 1960",Lake City,Minnesota,44.4492982,-92.2666914
335,Corey Brewer,"March 5, 1986",Portland,Tennessee,36.5817089,-86.5163833
336,Jamison Brewer,"November 19, 1980",East Point,Georgia,33.6795531,-84.43937240000001
337,Jim Brewer,"December 3, 1951",Maywood,Illinois,41.8791979,-87.8431155
338,Ron Brewer,"September 16, 1955",Fort Smith,Arkansas,35.3859242,-94.39854749999999
339,Ronnie Brewer,"March 20, 1985",Fort Smith,Arkansas,35.3859242,-94.39854749999999
340,Primoz Brezec,"October 2, 1979",Postojna,Slovenia,45.7749704,14.2133245
341,Frankie Brian,"May 1, 1923",Zachary,Louisiana,30.64851909999999,-91.1564961
342,Frank Brickowski,"August 14, 1959",Bayville,New York,40.9106541,-73.56206890000001
343,Junior Bridgeman,"September 17, 1953",East Chicago,Indiana,41.63920239999999,-87.4547635
344,Bill Bridges,"April 4, 1939",Hobbs,New Mexico,32.7026116,-103.1360403
345,John Brisker,"June 15, 1947",Detroit,Michigan,42.331427,-83.0457538
346,Allan Bristow,"August 23, 1951",Richmond,Virginia,37.5407246,-77.4360481
347,Wayman Britt,"August 31, 1952",Wilson Mills,North Carolina,35.5840472,-78.3558342
348,Mike Brittain,"June 21, 1963",Clearwater,Florida,27.9658533,-82.8001026
349,Dave Britton,"August 29, 1958",New York,New York,40.7127753,-74.0059728
350,Jon Brockman,"March 20, 1987",Snohomish,Washington,47.91287560000001,-122.0981847
351,Jim Brogan,"February 24, 1958",Ardmore,Pennsylvania,40.0067785,-75.2854622
352,Malcolm Brogdon,"December 11, 1992",Atlanta,Georgia,33.7489954,-84.3879824
353,Gary Brokaw,"January 11, 1954",New Brunswick,New Jersey,40.4862157,-74.4518188
354,Price Brookfield,"May 11, 1920",Floydada,Texas,33.9845232,-101.3376574
355,Aaron Brooks,"January 14, 1985",Seattle,Washington,47.6062095,-122.3320708
356,Kevin Brooks,"October 12, 1969",Beaufort,South Carolina,32.4315813,-80.6698286
357,MarShon Brooks,"January 26, 1989",Long Branch,New Jersey,40.30427780000001,-73.9923596
358,Michael Brooks,"August 17, 1958",Philadelphia,Pennsylvania,39.9525839,-75.1652215
359,Scott Brooks,"July 31, 1965",French Camp,California,37.8817227,-121.2747843
360,Andre Brown,"May 12, 1981",Chicago,Illinois,41.8781136,-87.6297982
361,Bob Brown,"November 12, 1923",Versailles,Ohio,40.2225481,-84.48439599999999
362,Chucky Brown,"February 29, 1968",New York,New York,40.7127753,-74.0059728
363,Dee Brown,"November 29, 1968",Jacksonville,Florida,30.3321838,-81.65565099999999
364,Ernest Brown,"May 17, 1979",Bronx,New York,40.8447819,-73.8648268
365,Fred Brown,"August 7, 1948",Milwaukee,Wisconsin,43.0389025,-87.9064736
366,Jabari Brown,"December 18, 1992",Oakland,California,37.8043514,-122.2711639
367,John Brown,"December 14, 1951",Frankfurt,Germany,50.1109221,8.6821267
368,Kedrick Brown,"March 18, 1981",Zachary,Louisiana,30.64851909999999,-91.1564961
369,Kwame Brown,"March 10, 1982",Charleston,South Carolina,32.7764749,-79.93105120000001
370,Lorenzo Brown,"August 26, 1990",Roswell,Georgia,34.0232431,-84.3615555
371,Marcus Brown,"April 3, 1974",West Memphis,Arkansas,35.1464797,-90.1845388
372,Mike Brown,"July 19, 1963",Newark,New Jersey,40.735657,-74.1723667
373,Myron Brown,"November 3, 1969",McKees Rocks,Pennsylvania,40.4656244,-80.0656106
374,Raymond Brown,"July 5, 1965",Atlanta,Georgia,33.7489954,-84.3879824
375,Rickey Brown,"August 20, 1958",Madison County,Mississippi,32.6729459,-90.0373201
376,Roger Brown,"May 22, 1942",Brooklyn,New York,40.6781784,-73.9441579
377,Shannon Brown,"November 29, 1985",Maywood,Illinois,41.8791979,-87.8431155
378,Tierre Brown,"June 3, 1979",Iowa,Louisiana,30.2368292,-93.01363990000002
379,Tony Brown,"July 29, 1960",Chicago,Illinois,41.8781136,-87.6297982
380,Jim Browne,"January 1, 1930",Midlothian,Illinois,41.6253116,-87.7175491
381,Stanley Brundy,"November 13, 1967",New Orleans,Louisiana,29.95106579999999,-90.0715323
382,Rick Brunson,"June 14, 1972",Syracuse,New York,43.0481221,-76.14742439999999
383,Nicolas Brussino,"March 2, 1993",Santa Fe,Argentina,-31.6106578,-60.697294
384,Em Bryant,"November 4, 1938",Chicago,Illinois,41.8781136,-87.6297982
385,Joe Bryant,"October 19, 1954",Philadelphia,Pennsylvania,39.9525839,-75.1652215
386,Kobe Bryant,"August 23, 1978",Philadelphia,Pennsylvania,39.9525839,-75.1652215
387,Mark Bryant,"April 25, 1965",Glen Ridge,New Jersey,40.805378,-74.20375659999999
388,Wallace Bryant,"July 14, 1959",Madrid,Spain,40.4167754,-3.7037902
389,Torgeir Bryn,"August 8, 1964",Oslo,Norway,59.9138688,10.7522454
390,Steve Bucknall,"March 17, 1966",London,United Kingdom,51.5073509,-0.1277583
391,Cleveland Buckner,"August 17, 1938",Yazoo City,Mississippi,32.8551326,-90.4056468
392,Greg Buckner,"September 16, 1976",Hopkinsville,Kentucky,36.8656008,-87.4886186
393,Quinn Buckner,"August 20, 1954",Phoenix,Illinois,41.6111456,-87.63476829999999
394,Dave Budd,"October 28, 1938",Woodbury,New Jersey,39.83816909999999,-75.1526774
395,Chase Budinger,"May 22, 1988",Encinitas,California,33.0369867,-117.2919818
396,Walt Budko,"July 30, 1925",Kearney,New Jersey,40.7684342,-74.1454214
397,Jud Buechler,"June 19, 1968",San Diego,California,32.715738,-117.1610838
398,Rodney Buford,"November 2, 1977",Milwaukee,Wisconsin,43.0389025,-87.9064736
399,Matt Bullard,"June 5, 1967",Des Moines,Iowa,41.5868353,-93.6249593
400,Reggie Bullock,"March 16, 1991",Baltimore,Maryland,39.2903848,-76.6121893
401,Greg Bunch,"May 15, 1956",San Bernardino,California,34.1083449,-117.2897652
402,Dick Bunt,"July 13, 1930",Queens,New York,40.7282239,-73.7948516
403,Bill Buntin,"May 5, 1942",Detroit,Michigan,42.331427,-83.0457538
404,Ticky Burden,"February 28, 1953",Haines City,Florida,28.1141841,-81.61785359999999
405,Pat Burke,"December 14, 1973",Dublin,Ireland,53.3498053,-6.2603097
406,Trey Burke,"November 12, 1992",Columbus,Ohio,39.9611755,-82.99879419999999
407,Roger Burkman,"May 22, 1958",Indianapolis,Indiana,39.768403,-86.158068
408,Alec Burks,"July 20, 1991",Grandview,Missouri,38.8858407,-94.5330096
409,Antonio Burks,"February 25, 1980",Memphis,Tennessee,35.1495343,-90.0489801
410,Kevin Burleson,"April 9, 1979",Seattle,Washington,47.6062095,-122.3320708
411,Tom Burleson,"February 24, 1952",Crossnore,North Carolina,36.0217938,-81.92955789999999
412,David Burns,"July 3, 1958",Dallas,Texas,32.7766642,-96.79698789999999
413,Evers Burns,"August 24, 1971",Baltimore,Maryland,39.2903848,-76.6121893
414,Scott Burrell,"January 12, 1971",New Haven,Connecticut,41.308274,-72.9278835
415,Junior Burrough,"January 18, 1973",Charlotte,North Carolina,35.2270869,-80.8431267
416,Bob Burrow,"June 29, 1934",Malvern,Arkansas,34.3623149,-92.81294620000001
417,Willie Burton,"May 26, 1968",Detroit,Michigan,42.331427,-83.0457538
418,Steve Burtt,"November 5, 1962",New York,New York,40.7127753,-74.0059728
419,Don Buse,"August 10, 1950",Huntingburg,Indiana,38.2989422,-86.9549971
420,Donnie Butcher,"February 8, 1936",Williamsport,Kentucky,37.8206502,-82.7290471
421,Al Butler,"July 9, 1938",Rochester,New York,43.15657789999999,-77.6088465
422,Caron Butler,"March 13, 1980",Racine,Wisconsin,42.7261309,-87.78285230000002
423,Greg Butler,"March 11, 1966",Inglewood,California,33.9616801,-118.3531311
424,Jackie Butler,"March 10, 1985",McComb,Mississippi,31.2437872,-90.4531535
425,Jimmy Butler,"September 14, 1989",Houston,Texas,29.7604267,-95.3698028
426,Rasual Butler,"May 23, 1979",Philadelphia,Pennsylvania,39.9525839,-75.1652215
427,Dwight Buycks,"March 6, 1989",Milwaukee,Wisconsin,43.0389025,-87.9064736
428,Derrick Byars,"April 25, 1984",Memphis,Tennessee,35.1495343,-90.0489801
429,Andrew Bynum,"October 27, 1987",Plainsboro,New Jersey,40.3382543,-74.585292
430,Will Bynum,"January 4, 1983",Chicago,Illinois,41.8781136,-87.6297982
431,Marty Byrnes,"April 30, 1956",Syracuse,New York,43.0481221,-76.14742439999999
432,Tommy Byrnes,"February 19, 1923",Teaneck,New Jersey,40.8932469,-74.0116536
433,Zarko Cabarkapa,"May 21, 1981",Zrenjanin,Serbia,45.3815612,20.3685737
434,Bruno Caboclo,"September 21, 1995",Osasco,Brazil,-23.5372048,-46.7962319
435,Jason Caffey,"June 12, 1973",Mobile,Alabama,30.6953657,-88.0398912
436,Michael Cage,"January 28, 1962",West Memphis,Arkansas,35.1464797,-90.1845388
437,Gerry Calabrese,"February 4, 1925",Hoboken,New Jersey,40.7439905,-74.0323626
438,Nick Calathes,"February 7, 1989",Casselberry,Florida,28.677775,-81.3278455
439,Jose Calderon,"September 28, 1981",Villanueva de la Serena,Spain,38.97357520000001,-5.7997323
440,Adrian Caldwell,"July 4, 1966",Falls County,Texas,31.1636412,-97.0068393
441,Jim Caldwell,"January 28, 1943",Durham,North Carolina,35.9940329,-78.898619
442,Joe Caldwell,"November 1, 1941",Texas City,Texas,29.383845,-94.9027002
443,Kentavious Caldwell-Pope,"February 18, 1993",Thomaston,Georgia,32.8881879,-84.3265854
444,Bill Calhoun,"November 4, 1927",San Francisco,California,37.7749295,-122.4194155
445,Corky Calhoun,"November 1, 1950",Waukegan,Illinois,42.3636331,-87.84479379999999
446,Demetrius Calip,"November 18, 1969",Flint,Michigan,43.0125274,-83.6874562
447,Rick Calloway,"December 12, 1966",Cincinnati,Ohio,39.1031182,-84.5120196
448,Mack Calvin,"July 27, 1947",Fort Worth,Texas,32.7554883,-97.3307658
449,Dexter Cambridge,"January 29, 1970",Eleuthra,Bahamas,24.9314461,-76.18996609999999
450,Marcus Camby,"March 22, 1974",Hartford,Connecticut,41.7658043,-72.6733723
451,Elden Campbell,"July 23, 1968",Los Angeles,California,34.0522342,-118.2436849
452,Tony Campbell,"May 7, 1962",Teaneck,New Jersey,40.8932469,-74.0116536
453,Isaiah Canaan,"May 21, 1991",Biloxi,Mississippi,30.3960318,-88.88530779999999
454,Larry Cannon,"April 12, 1947",Philadelphia,Pennsylvania,39.9525839,-75.1652215
455,Derrick Caracter,"May 4, 1988",Fanwood,New Jersey,40.6409358,-74.383484
456,Brian Cardinal,"May 2, 1977",Tolono,Illinois,39.9861415,-88.2589387
457,Howie Carl,"June 7, 1938",Chicago,Illinois,41.8781136,-87.6297982
458,Geno Carlisle,"August 13, 1976",Grand Rapids,Michigan,42.9633599,-85.6680863
459,Rick Carlisle,"October 27, 1959",Ogdensburg,New York,44.6942291,-75.48633640000001
460,Al Carlson,"September 17, 1951",Oceanside,California,33.1958696,-117.3794834
461,Don Carlson,"March 22, 1919",Minneapolis,Minnesota,44.977753,-93.2650108
462,Rodney Carney,"April 15, 1984",Memphis,Tennessee,35.1495343,-90.0489801
463,Antoine Carr,"July 23, 1961",Oklahoma City,Oklahoma,35.4675602,-97.5164276
464,Austin Carr,"March 10, 1948",Washington,District of Columbia,38.9071923,-77.0368707
465,Chris Carr,"March 12, 1974",Ironton,Missouri,37.5972724,-90.6273444
466,Cory Carr,"December 5, 1975",Fordyce,Arkansas,33.8137161,-92.4129303
467,Kenny Carr,"August 15, 1955",Washington,District of Columbia,38.9071923,-77.0368707
468,Bob Carrington,"July 3, 1953",Brookline,Massachusetts,42.33176419999999,-71.1211635
469,DeMarre Carroll,"July 27, 1986",Birmingham,Alabama,33.5185892,-86.8103567
470,Matt Carroll,"August 28, 1980",Pittsburgh,Pennsylvania,40.44062479999999,-79.9958864
471,Jimmy Carruth,"November 4, 1969",El Paso,Texas,31.7618778,-106.4850217
472,Anthony Carter,"June 16, 1975",Milwaukee,Wisconsin,43.0389025,-87.9064736
473,Butch Carter,"June 11, 1958",Springfield,Ohio,39.9242266,-83.8088171
474,Fred Carter,"February 14, 1945",Philadelphia,Pennsylvania,39.9525839,-75.1652215
475,George Carter,"January 10, 1944",Buffalo,New York,42.88644679999999,-78.8783689
476,Howard Carter,"October 26, 1961",Baton Rouge,Louisiana,30.4514677,-91.18714659999999
477,Maurice Carter,"October 12, 1976",Jackson,Mississippi,32.2987573,-90.1848103
478,Reggie Carter,"October 10, 1957",New York,New York,40.7127753,-74.0059728
479,Ron Carter,"August 31, 1956",Pittsburgh,Pennsylvania,40.44062479999999,-79.9958864
480,Vince Carter,"January 26, 1977",Daytona Beach,Florida,29.2108147,-81.0228331
481,Michael Carter-Williams,"October 10, 1991",Hamilton,Massachusetts,42.63620520000001,-70.8431049
482,Bill Cartwright,"July 30, 1957",Lodi,California,38.1341477,-121.2722194
483,Cornelius Cash,"March 3, 1952",Macon,Mississippi,33.1054039,-88.5608767
484,Sam Cassell,"November 18, 1969",Baltimore,Maryland,39.2903848,-76.6121893
485,Omri Casspi,"June 22, 1988",Holon,Israel,32.015833,34.787384
486,Harvey Catchings,"September 2, 1951",Jackson,Mississippi,32.2987573,-90.1848103
487,Terry Catledge,"August 22, 1963",Houston,Mississippi,33.8984461,-88.99922670000001
488,Kelvin Cato,"August 26, 1974",Atlanta,Georgia,33.7489954,-84.3879824
489,Bobby Cattage,"August 17, 1958",Huntsville,Alabama,34.7303688,-86.5861037
490,Willie Cauley-Stein,"August 18, 1993",Spearville,Kansas,37.8500191,-99.75679319999999
491,Duane Causwell,"May 31, 1968",Queens Village,New York,40.7156628,-73.7419017
492,Ron Cavenall,"April 30, 1959",Beaumont,Texas,30.080174,-94.1265562
493,Cedric Ceballos,"August 2, 1969",Maui,Hawaii,20.7983626,-156.3319253
494,John Celestand,"March 6, 1977",Houston,Texas,29.7604267,-95.3698028
495,Lionel Chalmers,"November 10, 1980",Albany,New York,42.6525793,-73.7562317
496,Mario Chalmers,"May 19, 1986",Anchorage,Alaska,61.2180556,-149.9002778
497,Jerry Chambers,"July 18, 1943",Washington,District of Columbia,38.9071923,-77.0368707
498,Tom Chambers,"June 21, 1959",Ogden,Utah,41.223,-111.9738304
499,Mike Champion,"April 5, 1964",Everett,Washington,47.9789848,-122.2020795
500,Tyson Chandler,"October 2, 1982",Hanford,California,36.3274502,-119.6456844
501,Wilson Chandler,"May 10, 1987",Benton Harbor,Michigan,42.1167065,-86.45418939999999
502,Don Chaney,"March 22, 1946",Baton Rouge,Louisiana,30.4514677,-91.18714659999999
503,Rex Chapman,"October 5, 1967",Bowling Green,Kentucky,36.9685219,-86.4808043
504,Len Chappell,"January 31, 1941",Portage,Pennsylvania,40.3886847,-78.672241
505,Lorenzo Charles,"November 25, 1963",Brooklyn,New York,40.6781784,-73.9441579
506,Calbert Cheaney,"July 17, 1971",Evansville,Indiana,37.9715592,-87.5710898
507,Maurice Cheeks,"September 8, 1956",Chicago,Illinois,41.8781136,-87.6297982
508,Phil Chenier,"October 30, 1950",Berkeley,California,37.8715226,-122.273042
509,Will Cherry,"February 8, 1991",Oakland,California,37.8043514,-122.2711639
510,Derrick Chievous,"July 3, 1967",New York,New York,40.7127753,-74.0059728
511,Pete Chilcutt,"September 14, 1968",Sumter,South Carolina,33.9204354,-80.3414693
512,Josh Childress,"June 20, 1983",Harbor City,California,33.7906551,-118.2965084
513,Randolph Childress,"September 21, 1972",Washington,District of Columbia,38.9071923,-77.0368707
514,Chris Childs,"November 20, 1967",Bakersfield,California,35.3732921,-119.0187125
515,Leroy Chollet,"March 5, 1925",New Orleans,Louisiana,29.95106579999999,-90.0715323
516,Jim Chones,"November 30, 1949",Racine,Wisconsin,42.7261309,-87.78285230000002
517,Marquese Chriss,"July 2, 1997",Sacramento,California,38.5815719,-121.4943996
518,Doug Christie,"May 9, 1970",Seattle,Washington,47.6062095,-122.3320708
519,Dionte Christmas,"September 15, 1986",Philadelphia,Pennsylvania,39.9525839,-75.1652215
520,Rakeem Christmas,"December 1, 1991",Irvington,New Jersey,40.7263249,-74.22864349999999
521,Semaj Christon,"November 1, 1992",Cincinnati,Ohio,39.1031182,-84.5120196
522,Patrick Christopher,"June 3, 1988",Compton,California,33.8958492,-118.2200712
523,Robert Churchwell,"February 20, 1972",South Bend,Indiana,41.6763545,-86.25198979999999
524,Archie Clark,"July 15, 1941",Conway,Arkansas,35.0886963,-92.4421011
525,Carlos Clark,"August 10, 1960",Somerville,Tennessee,35.2436969,-89.35007139999999
526,Earl Clark,"January 17, 1988",Plainfield,New Jersey,40.6337136,-74.4073736
527,Ian Clark,"March 7, 1991",Memphis,Tennessee,35.1495343,-90.0489801
528,Keon Clark,"April 16, 1975",Danville,Illinois,40.124481,-87.6300207
529,Coty Clarke,"July 4, 1992",Antioch,Tennessee,36.0597177,-86.6715948
530,Jordan Clarkson,"June 7, 1992",Tampa,Florida,27.950575,-82.4571776
531,Victor Claver,"August 30, 1988",Valencia,Spain,39.4699075,-0.3762881
532,Charles Claxton,"December 13, 1970",St. Thomas,U.S. Virgin Islands,18.3380965,-64.8940946
533,Speedy Claxton,"May 8, 1978",Queens,New York,40.7282239,-73.7948516
534,Jim Cleamons,"September 13, 1949",Lincolnton,North Carolina,35.473745,-81.2545251
535,Mateen Cleaves,"September 7, 1977",Flint,Michigan,43.0125274,-83.6874562
536,Barry Clemens,"May 1, 1943",Dayton,Ohio,39.7589478,-84.1916069
537,Bill Closs,"January 8, 1922",Edge,Texas,30.8899124,-96.2946839
538,Keith Closs,"April 3, 1976",Hartford,Connecticut,41.7658043,-72.6733723
539,Ben Clyde,"June 10, 1951",Albany,Georgia,31.5785074,-84.15574099999999
540,Richard Coffey,"September 2, 1965",Aurora,North Carolina,35.3054469,-76.78854299999999
541,Fred Cofield,"January 4, 1962",Ypsilanti,Michigan,42.2411499,-83.61299389999999
542,John Coker,"October 28, 1971",Richland,Washington,46.28042000000001,-119.2751996
543,Norris Cole,"October 13, 1988",Dayton,Ohio,39.7589478,-84.1916069
544,Ben Coleman,"November 14, 1961",Minneapolis,Minnesota,44.977753,-93.2650108
545,Derrick Coleman,"June 21, 1967",Mobile,Alabama,30.6953657,-88.0398912
546,Jack Coleman,"May 23, 1924",Burgin,Kentucky,37.7534112,-84.7666148
547,Norris Coleman,"September 27, 1961",Jacksonville,Florida,30.3321838,-81.65565099999999
548,Bimbo Coles,"April 22, 1968",Covington,Virginia,37.7934585,-79.99394629999999
549,Art Collins,"April 14, 1954",Sandersville,Georgia,32.9815431,-82.810138
550,Doug Collins,"July 28, 1951",Christopher,Illinois,37.9725501,-89.053408
551,James Collins,"November 5, 1973",Jacksonville,Florida,30.3321838,-81.65565099999999
552,Mardy Collins,"August 4, 1984",Philadelphia,Pennsylvania,39.9525839,-75.1652215
553,Sherron Collins,"March 18, 1987",Chicago,Illinois,41.8781136,-87.6297982
554,Darren Collison,"August 23, 1987",Rancho Cucamonga,California,34.10639889999999,-117.5931084
555,Nick Collison,"October 26, 1980",Orange City,Iowa,43.0072087,-96.0583523
556,Sean Colson,"July 1, 1975",Philadelphia,Pennsylvania,39.9525839,-75.1652215
557,Steve Colter,"July 24, 1962",Phoenix,Arizona,33.4483771,-112.0740373
558,Leroy Combs,"January 1, 1961",Oklahoma City,Oklahoma,35.4675602,-97.5164276
559,Dallas Comegys,"August 17, 1964",Philadelphia,Pennsylvania,39.9525839,-75.1652215
560,Gene Conley,"November 10, 1930",Muskogee,Oklahoma,35.7478769,-95.3696909
561,Mike Conley,"October 11, 1987",Fayetteville,Arkansas,36.082156,-94.17185420000001
562,Marty Conlon,"January 19, 1968",Bronx,New York,40.8447819,-73.8648268
563,Pat Connaughton,"January 6, 1993",Arlington,Massachusetts,42.4153925,-71.1564729
564,Lester Conner,"September 17, 1959",Memphis,Tennessee,35.1495343,-90.0489801
565,Will Conroy,"December 8, 1982",Portland,Oregon,45.5051064,-122.6750261
566,Anthony Cook,"March 19, 1967",Los Angeles,California,34.0522342,-118.2436849
567,Brian Cook,"December 4, 1980",Lincoln,Illinois,40.1483768,-89.3648183
568,Darwin Cook,"August 6, 1958",Los Angeles,California,34.0522342,-118.2436849
569,Jeff Cook,"October 21, 1956",West Covina,California,34.0686208,-117.9389526
570,Norm Cook,"March 21, 1955",Chicago,Illinois,41.8781136,-87.6297982
571,Omar Cook,"January 28, 1982",Brooklyn,New York,40.6781784,-73.9441579
572,Quinn Cook,"March 23, 1993",Washington,District of Columbia,38.9071923,-77.0368707
573,David Cooke,"September 27, 1963",Sacramento,California,38.5815719,-121.4943996
574,Jack Cooley,"April 4, 1991",Evanston,Illinois,42.0450722,-87.68769689999999
575,Duane Cooper,"June 25, 1969",Benton Harbor,Michigan,42.1167065,-86.45418939999999
576,Joe Cooper,"September 1, 1957",Houston,Texas,29.7604267,-95.3698028
577,Michael Cooper,"April 15, 1956",Los Angeles,California,34.0522342,-118.2436849
578,Wayne Cooper,"November 16, 1956",Milan,Georgia,32.0173996,-83.0626489
579,Tom Copa,"October 30, 1964",Robbinsdale,Minnesota,45.032187,-93.3385614
580,Chris Copeland,"March 17, 1984",Orange,New Jersey,40.7706187,-74.2326478
581,Hollis Copeland,"December 20, 1955",Trenton,New Jersey,40.2205824,-74.759717
582,Lanard Copeland,"July 16, 1965",Atlanta,Georgia,33.7489954,-84.3879824
583,Tyrone Corbin,"December 31, 1962",Columbia,South Carolina,34.0007104,-81.0348144
584,Chris Corchiani,"March 28, 1968",Coral Gables,Florida,25.7491968,-80.2635411
585,Dave Corzine,"April 25, 1956",Arlington Heights,Illinois,42.0883603,-87.98062650000001
586,Larry Costello,"July 2, 1931",Minoa,New York,43.0761781,-76.0007529
587,Bryce Cotton,"August 11, 1992",Tucson,Arizona,32.2226066,-110.9747108
588,Jack Cotton,"October 25, 1924",Miles City,Montana,46.4083362,-105.8405582
589,John Coughran,"September 12, 1951",Pittsburg,California,38.0279762,-121.8846806
590,Mel Counts,"October 16, 1941",Coos Bay,Oregon,43.3665007,-124.2178903
591,Joe Courtney,"October 17, 1969",Jackson,Mississippi,32.2987573,-90.1848103
592,Marcus Cousin,"December 18, 1986",Baltimore,Maryland,39.2903848,-76.6121893
593,DeMarcus Cousins,"August 13, 1990",Mobile,Alabama,30.6953657,-88.0398912
594,Robert Covington,"December 14, 1990",Bellwood,Illinois,41.8814197,-87.883117
595,Chubby Cox,"December 29, 1955",Philadelphia,Pennsylvania,39.9525839,-75.1652215
596,Johnny Cox,"November 1, 1936",Neon,Kentucky,37.1923249,-82.7057126
597,Wesley Cox,"January 27, 1955",Louisville,Kentucky,38.2526647,-85.7584557
598,Allen Crabbe,"April 9, 1992",Los Angeles,California,34.0522342,-118.2436849
599,Chris Crawford,"May 13, 1975",Kalamazoo,Michigan,42.2917069,-85.5872286
600,Freddie Crawford,"December 23, 1941",New York,New York,40.7127753,-74.0059728
601,Jamal Crawford,"March 20, 1980",Seattle,Washington,47.6062095,-122.3320708
602,Joe Crawford,"June 17, 1986",Detroit,Michigan,42.331427,-83.0457538
603,Jim Creighton,"April 18, 1950",Billings,Montana,45.7832856,-108.5006904
604,Ron Crevier,"April 14, 1958",Montreal,Canada,45.5016889,-73.567256
605,Joe Crispin,"July 18, 1979",Pitman,New Jersey,39.732892,-75.1315651
606,Charlie Criss,"November 6, 1948",Valhalla,New York,41.0748188,-73.77513259999999
607,Winston Crite,"June 20, 1965",Bakersfield,California,35.3732921,-119.0187125
608,Javaris Crittenton,"December 31, 1987",Atlanta,Georgia,33.7489954,-84.3879824
609,Dillard Crocker,"January 19, 1925",Coffee County,Tennessee,35.4576849,-86.05296039999999
610,Geoff Crompton,"July 4, 1955",Burlington,North Carolina,36.0956918,-79.43779909999999
611,Terry Crosby,"January 4, 1957",Toledo,Ohio,41.6528052,-83.5378674
612,Austin Croshere,"May 1, 1975",Los Angeles,California,34.0522342,-118.2436849
613,Jeff Cross,"September 1, 1961",Chicago,Illinois,41.8781136,-87.6297982
614,Russell Cross,"September 5, 1961",Chicago,Illinois,41.8781136,-87.6297982
615,Chink Crossin,"July 4, 1923",Luzerne,Pennsylvania,41.2856365,-75.9010304
616,John Crotty,"July 15, 1969",Orange,New Jersey,40.7706187,-74.2326478
617,Mark Crow,"October 22, 1954",Edwards AFB,California,34.9240314,-117.8912085
618,Corey Crowder,"April 13, 1969",Carrollton,Georgia,33.5801103,-85.0766113
619,Jae Crowder,"July 6, 1990",Villa Rica,Georgia,33.732052,-84.9191081
620,Pat Cummings,"July 11, 1956",Johnstown,Pennsylvania,40.32674069999999,-78.9219698
621,Terry Cummings,"March 15, 1961",Chicago,Illinois,41.8781136,-87.6297982
622,Vonteego Cummings,"February 29, 1976",Thomson,Georgia,33.4706927,-82.50457329999999
623,Dante Cunningham,"April 22, 1987",Clinton,Maryland,38.7651145,-76.8983059
624,Dick Cunningham,"July 11, 1946",Canton,Ohio,40.79894729999999,-81.378447
625,Jared Cunningham,"May 22, 1991",Oakland,California,37.8043514,-122.2711639
626,William Cunningham,"March 25, 1974",Augusta,Georgia,33.4734978,-82.0105148
627,Radisav Curcic,"September 26, 1965",Cacak,Serbia,43.8914144,20.3501652
628,Earl Cureton,"September 3, 1957",Detroit,Michigan,42.331427,-83.0457538
629,Bill Curley,"May 29, 1972",Boston,Massachusetts,42.3600825,-71.0588801
630,Fran Curran,"September 9, 1922",Sterling,Illinois,41.788642,-89.69621939999999
631,Dell Curry,"June 25, 1964",Harrisonburg,Virginia,38.4495688,-78.8689155
632,Eddy Curry,"December 5, 1982",Harvey,Illinois,41.6100344,-87.6467131
633,JamesOn Curry,"January 7, 1986",Pleasant Grove,North Carolina,36.1920811,-79.3266864
634,Michael Curry,"August 22, 1968",Anniston,Alabama,33.6598257,-85.8316318
635,Seth Curry,"August 23, 1990",Charlotte,North Carolina,35.2270869,-80.8431267
636,Stephen Curry,"March 14, 1988",Akron,Ohio,41.0814447,-81.51900529999999
637,Rastko Cvetkovic,"June 22, 1970",Belgrade,Serbia,44.786568,20.4489216
638,Mike D'Antoni,"May 8, 1951",Mullens,West Virginia,37.58316980000001,-81.38038039999999
639,Quintin Dailey,"January 22, 1961",Baltimore,Maryland,39.2903848,-76.6121893
640,Samuel Dalembert,"May 10, 1981",Port-Au-Prince,Haiti,18.594395,-72.3074326
641,Erick Dampier,"July 14, 1975",Jackson,Mississippi,32.2987573,-90.1848103
642,Bob Dandridge,"November 15, 1947",Richmond,Virginia,37.5407246,-77.4360481
643,Antonio Daniels,"March 19, 1975",Columbus,Ohio,39.9611755,-82.99879419999999
644,Erik Daniels,"April 1, 1982",Cincinnati,Ohio,39.1031182,-84.5120196
645,Lloyd Daniels,"September 4, 1967",Brooklyn,New York,40.6781784,-73.9441579
646,Marquis Daniels,"January 7, 1981",Jasper,Florida,30.5182727,-82.94819
647,Troy Daniels,"July 15, 1991",Roanoke,Virginia,37.2709704,-79.9414266
648,Sasha Danilovic,"February 26, 1970",Sarajevo,Bosnia and Herzegovina,43.8562586,18.4130763
649,Yinka Dare,"October 10, 1972",Kano,Nigeria,12.0021794,8.591956099999999
650,Jesse Dark,"September 2, 1951",Richmond,Virginia,37.5407246,-77.4360481
651,Jimmy Darrow,"September 25, 1937",Akron,Ohio,41.0814447,-81.51900529999999
652,Luigi Datome,"November 27, 1987",Montebelluna,Italy,45.775491,12.0439904
653,Brad Daugherty,"October 19, 1965",Black Mountain,North Carolina,35.6178951,-82.3212302
654,Jermareo Davidson,"November 15, 1984",Atlanta,Georgia,33.7489954,-84.3879824
655,Brandon Davies,"July 25, 1991",Philadelphia,Pennsylvania,39.9525839,-75.1652215
656,Antonio Davis,"October 31, 1968",Oakland,California,37.8043514,-122.2711639
657,Baron Davis,"April 13, 1979",Los Angeles,California,34.0522342,-118.2436849
658,Ben Davis,"December 26, 1972",Vero Beach,Florida,27.6386434,-80.39727359999999
659,Brad Davis,"December 17, 1955",Monaca,Pennsylvania,40.6872885,-80.2714505
660,Charlie Davis,"September 7, 1949",New York,New York,40.7127753,-74.0059728
661,Dale Davis,"March 25, 1969",Toccoa,Georgia,34.5773206,-83.3323851
662,Deyonta Davis,"December 2, 1996",Muskegon,Michigan,43.2341813,-86.24839209999999
663,Dwight Davis,"October 28, 1949",Houston,Texas,29.7604267,-95.3698028
664,Ed Davis,"June 5, 1989",Washington,District of Columbia,38.9071923,-77.0368707
665,Emanual Davis,"August 27, 1968",Philadelphia,Pennsylvania,39.9525839,-75.1652215
666,Glen Davis,"January 1, 1986",Baton Rouge,Louisiana,30.4514677,-91.18714659999999
667,Harry Davis,"January 27, 1956",Cleveland,Ohio,41.49932,-81.6943605
668,Hubert Davis,"May 17, 1970",Winston-Salem,North Carolina,36.09985959999999,-80.244216
669,Jim Davis,"December 18, 1941",Muncie,Indiana,40.1933767,-85.3863599
670,Johnny Davis,"October 21, 1955",Detroit,Michigan,42.331427,-83.0457538
671,Mark Davis,"June 8, 1963",Chesapeake,Virginia,36.7682088,-76.2874927
672,Mel Davis,"November 9, 1950",New York,New York,40.7127753,-74.0059728
673,Mike Davis,"July 26, 1946",Brooklyn,New York,40.6781784,-73.9441579
674,Monti Davis,"July 26, 1958",Warren,Ohio,41.2375569,-80.81841659999999
675,Paul Davis,"July 21, 1984",Detroit,Michigan,42.331427,-83.0457538
676,Ralph Davis,"September 7, 1938",Vanceburg,Kentucky,38.599243,-83.3187952
677,Ricky Davis,"September 23, 1979",Las Vegas,Nevada,36.1699412,-115.1398296
678,Ron Davis,"May 1, 1954",Phoenix,Arizona,33.4483771,-112.0740373
679,Terry Davis,"June 17, 1967",Danville,Virginia,36.5859718,-79.39502279999999
680,Walt Davis,"January 5, 1931",Beaumont,Texas,30.080174,-94.1265562
681,Andre Dawkins,"September 19, 1991",Fairfax,Virginia,38.84622359999999,-77.30637329999999
682,Darryl Dawkins,"January 11, 1957",Orlando,Florida,28.5383355,-81.3792365
683,Johnny Dawkins,"September 28, 1963",Washington,District of Columbia,38.9071923,-77.0368707
684,Paul Dawkins,"June 10, 1957",Saginaw,Michigan,43.4194699,-83.9508068
685,Branden Dawson,"February 1, 1993",Gary,Indiana,41.6020403,-87.3371523
686,Eric Dawson,"July 7, 1984",San Antonio,Texas,29.4241219,-98.49362819999999
687,Tony Dawson,"August 25, 1967",Kinston,North Carolina,35.2626635,-77.5816353
688,Todd Day,"January 7, 1970",Decatur,Illinois,39.8403147,-88.9548001
689,Austin Daye,"June 5, 1988",Irvine,California,33.6845673,-117.8265049
690,Darren Daye,"November 30, 1960",Des Moines,Iowa,41.5868353,-93.6249593
691,Greg Deane,"December 6, 1957",Tulare,California,36.2077288,-119.3473379
692,Andrew DeClercq,"February 1, 1973",Detroit,Michigan,42.331427,-83.0457538
693,Dewayne Dedmon,"August 12, 1989",Lancaster,California,34.6867846,-118.1541632
694,Archie Dees,"February 22, 1936",Ethel,Mississippi,33.1204062,-89.46590619999999
695,Terry Dehere,"September 12, 1971",New York,New York,40.7127753,-74.0059728
696,Bryce Dejean-Jones,"August 21, 1992",Los Angeles,California,34.0522342,-118.2436849
697,Sam Dekker,"May 6, 1994",Sheboygan,Wisconsin,43.7508284,-87.71453
698,Malcolm Delaney,"March 11, 1989",Baltimore,Maryland,39.2903848,-76.6121893
699,Bison Dele,"April 6, 1969",Fresno,California,36.7377981,-119.7871247
700,Carlos Delfino,"August 29, 1982",Santa Fe,Argentina,-31.6106578,-60.697294
701,Tony Delk,"January 28, 1974",Covington,Tennessee,35.5648087,-89.64897859999999
702,Matthew Dellavedova,"September 8, 1990",Maryborough,Australia,-25.5232627,152.6970636
703,Fennis Dembo,"January 24, 1966",Mobile,Alabama,30.6953657,-88.0398912
704,Larry Demic,"June 27, 1957",Gary,Indiana,41.6020403,-87.3371523
705,Dell Demps,"February 12, 1970",Long Beach,California,33.7700504,-118.1937395
706,George Dempsey,"July 19, 1929",Philadelphia,Pennsylvania,39.9525839,-75.1652215
707,Luol Deng,"April 16, 1985",Wow,South Sudan,7.7091884,27.9834738
708,Kenny Dennard,"October 18, 1958",King,North Carolina,36.2806939,-80.3592197
709,Justin Dentmon,"September 5, 1985",Carbondale,Illinois,37.7272727,-89.2167501
710,Randy Denton,"February 18, 1949",Raleigh,North Carolina,35.7795897,-78.6381787
711,Rod Derline,"March 11, 1952",Elma,Washington,47.0034291,-123.4087692
712,DeMar DeRozan,"August 7, 1989",Compton,California,33.8958492,-118.2200712
713,Dave Deutsch,"May 13, 1945",Brooklyn,New York,40.6781784,-73.9441579
714,Derrick Dial,"December 20, 1975",Detroit,Michigan,42.331427,-83.0457538
715,Cheick Diallo,"September 13, 1996",Kayes,Mali,14.4367876,-11.4452717
716,Boris Diaw,"April 16, 1982",Cormeille-en-Parisis,France,48.973526,2.201292
717,Yakhouba Diawara,"August 29, 1982",Paris,France,48.856614,2.3522219
718,Guillermo Diaz,"March 4, 1985",San Juan,Puerto Rico,18.4655394,-66.1057355
719,Dan Dickau,"September 16, 1978",Portland,Oregon,45.5051064,-122.6750261
720,Kaniel Dickens,"July 21, 1978",Denver,Colorado,39.7392358,-104.990251
721,Henry Dickerson,"November 27, 1951",Berkley,West Virginia,39.62699020000001,-78.2271957
722,Michael Dickerson,"June 25, 1975",Greenville,South Carolina,34.85261759999999,-82.3940104
723,Derrek Dickey,"March 20, 1951",Cincinnati,Ohio,39.1031182,-84.5120196
724,Dick Dickey,"October 26, 1926",Grant County,Indiana,40.4730605,-85.684578
725,Travis Diener,"March 1, 1982",Fond du Lac,Wisconsin,43.7730448,-88.4470508
726,Gorgui Dieng,"January 18, 1990",Kebemer,Senegal,15.3763381,-16.4464766
727,Connie Dierking,"October 2, 1936",Brooklyn,New York,40.6781784,-73.9441579
728,Coby Dietrick,"July 23, 1948",Riverside,California,33.9806005,-117.3754942
729,Ernie DiGregorio,"January 15, 1951",North Providence,Rhode Island,41.8535518,-71.46766389999999
730,Mickey Dillard,"October 15, 1958",Hollywood,Florida,26.0112014,-80.1494901
731,Hook Dillon,"January 8, 1924",Savannah,Georgia,32.0808989,-81.091203
732,Byron Dinkins,"June 15, 1967",Charlotte,North Carolina,35.2270869,-80.8431267
733,Spencer Dinwiddie,"April 6, 1993",Los Angeles,California,34.0522342,-118.2436849
734,Ike Diogu,"September 11, 1983",Buffalo,New York,42.88644679999999,-78.8783689
735,DeSagana Diop,"January 30, 1982",Dakar,Senegal,14.716677,-17.4676861
736,Terry Dischinger,"November 21, 1940",Terre Haute,Indiana,39.4667034,-87.41390919999999
737,Vlade Divac,"February 3, 1968",Prijepolje,Serbia,43.3893574,19.6463666
738,Juan Dixon,"October 9, 1978",Baltimore,Maryland,39.2903848,-76.6121893
739,Aleksandar Djordjevic,"August 26, 1967",Belgrade,Serbia,44.786568,20.4489216
740,Michael Doleac,"June 15, 1977",San Antonio,Texas,29.4241219,-98.49362819999999
741,Bob Doll,"August 10, 1919",Steamboat Springs,Colorado,40.4849769,-106.8317158
742,James Donaldson,"August 16, 1957",Heacham,United Kingdom,52.9067246,0.4888306
743,Billy Donovan,"May 30, 1965",Rockville Centre,New York,40.65871380000001,-73.6412406
744,Harry Donovan,"September 10, 1926",Union City,New Jersey,40.7795455,-74.02375119999999
745,Keyon Dooling,"May 8, 1980",Ft. Lauderdale,Florida,26.1224386,-80.13731740000001
746,Jacky Dorsey,"December 18, 1954",Atlanta,Georgia,33.7489954,-84.3879824
747,Joey Dorsey,"December 16, 1983",Baltimore,Maryland,39.2903848,-76.6121893
748,Quincy Douby,"May 16, 1984",Brooklyn,New York,40.6781784,-73.9441579
749,Bruce Douglas,"April 9, 1964",Quincy,Illinois,39.9356016,-91.4098726
750,John Douglas,"June 12, 1956",Town Creek,Alabama,34.6812011,-87.4061342
751,Leon Douglas,"August 26, 1954",Leighton,Alabama,34.700923,-87.52891509999999
752,Sherman Douglas,"September 15, 1966",Washington,District of Columbia,38.9071923,-77.0368707
753,Toney Douglas,"March 16, 1986",Jonesboro,Georgia,33.5215013,-84.3538128
754,Chris Douglas-Roberts,"January 8, 1987",Detroit,Michigan,42.331427,-83.0457538
755,Sonny Dove,"August 16, 1945",Brooklyn,New York,40.6781784,-73.9441579
756,Zabian Dowdell,"September 10, 1984",Pahokee,Florida,26.8200607,-80.665335
757,Steve Downing,"September 9, 1950",Indianapolis,Indiana,39.768403,-86.158068
758,Danny Doyle,"February 6, 1940",Long Island City,New York,40.744679,-73.9485424
759,Terry Dozier,"June 29, 1966",Baltimore,Maryland,39.2903848,-76.6121893
760,Goran Dragic,"May 6, 1986",Ljubljana,Slovenia,46.0569465,14.5057515
761,Zoran Dragic,"June 22, 1989",Ljubljana,Slovenia,46.0569465,14.5057515
762,Greg Dreiling,"November 7, 1962",Wichita,Kansas,37.68717609999999,-97.33005299999999
763,Bryce Drew,"September 21, 1974",Baton Rouge,Louisiana,30.4514677,-91.18714659999999
764,John Drew,"September 30, 1954",Vredenburgh,Alabama,31.8284857,-87.3216563
765,Larry Drew,"April 2, 1958",Kansas City,Kansas,39.11553139999999,-94.62678729999999
766,Nate Driggers,"October 12, 1973",Chicago,Illinois,41.8781136,-87.6297982
767,Terry Driscoll,"August 28, 1947",Winthrop,Massachusetts,42.374776,-70.9862693
768,Predrag Drobnjak,"October 27, 1975",Bijelo Polje,Montenegro,43.0369422,19.7561911
769,Ralph Drollinger,"April 20, 1954",La Mesa,California,32.7678287,-117.0230839
770,Andre Drummond,"August 10, 1993",Mount Vernon,New York,40.9125992,-73.8370786
771,Kevin Duckworth,"April 1, 1964",Harvey,Illinois,41.6100344,-87.6467131
772,Charles Dudley,"March 5, 1950",Harrisburg,Pennsylvania,40.2731911,-76.8867008
773,Jared Dudley,"July 10, 1985",San Diego,California,32.715738,-117.1610838
774,Terry Duerod,"July 29, 1956",Royal Oak,Michigan,42.4894801,-83.1446485
775,Chris Duhon,"August 31, 1982",Mamou,Louisiana,30.6338092,-92.41929929999999
776,Duje Dukan,"December 4, 1991",Split,Croatia,43.5081323,16.4401935
777,Walter Dukes,"June 23, 1930",Rochester,New York,43.15657789999999,-77.6088465
778,Tony Dumas,"August 25, 1972",Chicago,Illinois,41.8781136,-87.6297982
779,Tim Duncan,"April 25, 1976",St. Croix,U.S. Virgin Islands,17.7245968,-64.83479919999999
780,Mike Dunleavy,"March 21, 1954",Brooklyn,New York,40.6781784,-73.9441579
781,Kris Dunn,"March 18, 1994",New London,Connecticut,41.3556539,-72.0995209
782,Ronald Dupree,"January 26, 1981",Biloxi,Mississippi,30.3960318,-88.88530779999999
783,Kevin Durant,"September 29, 1988",Washington,District of Columbia,38.9071923,-77.0368707
784,John Duren,"October 30, 1958",Washington,District of Columbia,38.9071923,-77.0368707
785,Pat Durham,"March 10, 1967",Dallas,Texas,32.7766642,-96.79698789999999
786,Devin Durrant,"October 20, 1960",Provo,Utah,40.2338438,-111.6585337
787,Ken Durrett,"December 8, 1948",Pittsburgh,Pennsylvania,40.44062479999999,-79.9958864
788,Dennis DuVal,"March 31, 1952",Westbury,New York,40.7556561,-73.5876273
789,Craig Dykema,"June 11, 1959",Lakewood,California,33.8536269,-118.1339563
790,Jerome Dyson,"May 1, 1987",Rockville,Maryland,39.0839973,-77.1527578
791,Ledell Eackles,"November 24, 1966",Baton Rouge,Louisiana,30.4514677,-91.18714659999999
792,Jim Eakins,"May 24, 1946",Sacramento,California,38.5815719,-121.4943996
793,Acie Earl,"June 23, 1970",Peoria,Illinois,40.6936488,-89.5889864
794,Cleanthony Early,"April 17, 1991",Middletown,New York,41.4459271,-74.42293409999999
795,Mark Eaton,"January 24, 1957",Westminster,California,33.7591757,-117.9897058
796,Jerry Eaves,"February 8, 1959",Louisville,Kentucky,38.2526647,-85.7584557
797,Devin Ebanks,"October 28, 1989",Queens,New York,40.7282239,-73.7948516
798,Al Eberhard,"May 10, 1952",Cedar Rapids,Iowa,41.9778795,-91.6656232
799,Ndudi Ebi,"June 18, 1984",London,United Kingdom,51.5073509,-0.1277583
800,Jarell Eddie,"October 30, 1991",Tampa,Florida,27.950575,-82.4571776
801,Patrick Eddie,"December 27, 1967",Milwaukee,Wisconsin,43.0389025,-87.9064736
802,Dike Eddleman,"December 27, 1922",Centralia,Illinois,38.5285169,-89.1316944
803,Kenton Edelin,"May 24, 1962",Heidelburg,Germany,49.3987524,8.6724335
804,Keith Edmonson,"September 28, 1960",Gulfport,Mississippi,30.3674198,-89.0928155
805,Tyus Edney,"February 14, 1973",Gardena,California,33.8883487,-118.3089624
806,Bill Edwards,"September 22, 1971",Middletown,Ohio,39.5150576,-84.39827629999999
807,Blue Edwards,"October 31, 1965",Washington,District of Columbia,38.9071923,-77.0368707
808,Corsley Edwards,"March 5, 1979",Baltimore,Maryland,39.2903848,-76.6121893
809,Doug Edwards,"January 21, 1971",Miami,Florida,25.7616798,-80.1917902
810,Franklin Edwards,"February 2, 1959",New York,New York,40.7127753,-74.0059728
811,James Edwards,"November 22, 1955",Seattle,Washington,47.6062095,-122.3320708
812,John Edwards,"July 31, 1981",Warren,Ohio,41.2375569,-80.81841659999999
813,Kevin Edwards,"October 30, 1965",Cleveland Heights,Ohio,41.5200518,-81.556235
814,Shane Edwards,"May 31, 1987",Los Angeles,California,34.0522342,-118.2436849
815,Johnny Egan,"January 31, 1939",Hartford,Connecticut,41.7658043,-72.6733723
816,Craig Ehlo,"August 11, 1961",Lubbock,Texas,33.5778631,-101.8551665
817,Howard Eisley,"December 4, 1972",Detroit,Michigan,42.331427,-83.0457538
818,Obinna Ekezie,"August 22, 1975",Port Harcourt,Nigeria,4.815554,7.0498442
819,Khalid El-Amin,"April 25, 1979",Minneapolis,Minnesota,44.977753,-93.2650108
820,Mario Elie,"November 26, 1963",New York,New York,40.7127753,-74.0059728
821,Ray Ellefson,"November 18, 1922",Brookings,South Dakota,44.3113573,-96.79838769999999
822,Henry Ellenson,"January 13, 1997",Rice Lake,Wisconsin,45.5060682,-91.738225
823,Wayne Ellington,"October 29, 1987",Wynnewood,Pennsylvania,39.9995913,-75.273018
824,Bob Elliott,"August 18, 1955",Ann Arbor,Michigan,42.2808256,-83.7430378
825,Sean Elliott,"February 2, 1968",Tucson,Arizona,32.2226066,-110.9747108
826,Dale Ellis,"August 6, 1960",Marietta,Georgia,33.95260200000001,-84.5499327
827,Harold Ellis,"October 7, 1970",Atlanta,Georgia,33.7489954,-84.3879824
828,LaPhonso Ellis,"May 5, 1970",East St. Louis,Illinois,38.624514,-90.1506465
829,Leroy Ellis,"March 10, 1940",Far Rockaway,New York,40.5998931,-73.74484369999999
830,Monta Ellis,"October 26, 1985",Jackson,Mississippi,32.2987573,-90.1848103
831,Pervis Ellison,"April 3, 1967",Savannah,Georgia,32.0808989,-81.091203
832,Len Elmore,"March 28, 1952",New York,New York,40.7127753,-74.0059728
833,Francisco Elson,"February 28, 1976",Rotterdam,Netherlands,51.9244201,4.4777326
834,Darrell Elston,"August 15, 1952",Tipton,Indiana,40.2822598,-86.04109799999999
835,Melvin Ely,"May 2, 1978",Harvey,Illinois,41.6100344,-87.6467131
836,Joel Embiid,"March 16, 1994",Yaounde,Cameroon,3.8480325,11.5020752
837,Andre Emmett,"August 27, 1982",Dallas,Texas,32.7766642,-96.79698789999999
838,Chris Engler,"March 1, 1959",Stillwater,Minnesota,45.056004,-92.80884429999999
839,Wayne Englestad,"December 6, 1966",Rosemead,California,34.0805651,-118.072846
840,Claude English,"December 26, 1946",Columbus,Georgia,32.4609764,-84.9877094
841,Kim English,"September 24, 1988",Baltimore,Maryland,39.2903848,-76.6121893
842,Scott English,"October 20, 1950",Evanston,Illinois,42.0450722,-87.68769689999999
843,Gene Englund,"October 21, 1917",Kenosha,Wisconsin,42.5847425,-87.82118539999999
844,James Ennis,"July 1, 1990",Ventura,California,34.2804923,-119.2945199
845,Tyler Ennis,"August 24, 1994",Brampton,Canada,43.7315479,-79.7624177
846,Ray Epps,"August 20, 1956",Amelia,Virginia,37.3212714,-77.973865
847,Semih Erden,"July 28, 1986",Istanbul,Turkey,41.0082376,28.9783589
848,Bo Erias,"July 30, 1932",Astoria,New York,40.7643574,-73.92346189999999
849,Keith Erickson,"April 19, 1944",San Francisco,California,37.7749295,-122.4194155
850,Evan Eschmeyer,"May 30, 1975",New Knoxville,Ohio,40.4936586,-84.31467219999999
851,Vincenzo Esposito,"January 3, 1969",Caserta,Italy,41.0854362,14.367553
852,Bob Evans,"May 31, 1925",Indianapolis,Indiana,39.768403,-86.158068
853,Brian Evans,"September 13, 1973",Rockford,Illinois,42.2711311,-89.0939952
854,Earl Evans,"November 11, 1955",Port Arthur,Texas,29.8849504,-93.93994699999999
855,Jeremy Evans,"October 24, 1987",Crossett,Arkansas,33.1281779,-91.9612427
856,Maurice Evans,"November 8, 1978",Wichita,Kansas,37.68717609999999,-97.33005299999999
857,Mike Evans,"April 19, 1955",Goldsboro,North Carolina,35.3848841,-77.9927651
858,Reggie Evans,"May 18, 1980",Pensacola,Florida,30.42130899999999,-87.2169149
859,Tyreke Evans,"September 19, 1989",Chester,Pennsylvania,39.849557,-75.3557457
860,Daniel Ewing,"March 26, 1983",Milton,Florida,30.6324149,-87.03968809999999
861,Patrick Ewing,"August 5, 1962",Kingston,Jamaica,18.0178743,-76.8099041
862,Patrick Ewing,"May 20, 1984",Kingston,Jamaica,18.0178743,-76.8099041
863,Dante Exum,"July 13, 1995",Melbourne,Australia,-37.8136276,144.9630576
864,Christian Eyenga,"June 22, 1989",Kinshasa,Democratic Republic of the Congo,-4.4419311,15.2662931
865,Festus Ezeli,"October 21, 1989",Benin City,Nigeria,6.334986,5.6037465
866,Johnny Ezersky,"March 21, 1922",New York,New York,40.7127753,-74.0059728
867,John Fairchild,"April 28, 1943",Encinitas,California,33.0369867,-117.2919818
868,Kenneth Faried,"November 19, 1989",Newark,New Jersey,40.735657,-74.1723667
869,Jordan Farmar,"November 30, 1986",Los Angeles,California,34.0522342,-118.2436849
870,Desmon Farmer,"October 7, 1981",Flint,Michigan,43.0125274,-83.6874562
871,Jim Farmer,"September 23, 1964",Dothan,Alabama,31.2232313,-85.3904888
872,Mike Farmer,"September 26, 1936",Oklahoma City,Oklahoma,35.4675602,-97.5164276
873,Tony Farmer,"January 3, 1970",Los Angeles,California,34.0522342,-118.2436849
874,Vitor Faverani,"May 5, 1988",Porto Alegre,Brazil,-30.0346471,-51.2176584
875,Derrick Favors,"July 15, 1991",Atlanta,Georgia,33.7489954,-84.3879824
876,Nick Fazekas,"June 17, 1985",Denver,Colorado,39.7392358,-104.990251
877,Bob Feerick,"January 2, 1920",San Francisco,California,37.7749295,-122.4194155
878,Butch Feher,"May 19, 1954",Flint,Michigan,43.0125274,-83.6874562
879,Jamie Feick,"July 3, 1974",Lexington,Ohio,40.6786691,-82.5823931
880,Dave Feitl,"June 8, 1962",Butler,Pennsylvania,40.8611755,-79.89533279999999
881,Kay Felder,"March 29, 1995",Detroit,Michigan,42.331427,-83.0457538
882,Cristiano Felicio,"July 7, 1992",Pouso Alegre,Brazil,-22.2480373,-45.9420118
883,Carrick Felix,"August 17, 1990",Las Vegas,Arizona,36.1456103,-115.1712183
884,Noel Felix,"October 4, 1981",Los Angeles,California,34.0522342,-118.2436849
885,Ray Felix,"December 10, 1930",New York,New York,40.7127753,-74.0059728
886,Raymond Felton,"June 26, 1984",Marion,South Carolina,34.178216,-79.4006069
887,Desmond Ferguson,"July 22, 1977",Lansing,Michigan,42.732535,-84.5555347
888,Rudy Fernandez,"April 4, 1985",Palma de Mallorca,Spain,39.5696005,2.6501603
889,Eric Fernsten,"November 1, 1953",Oakland,California,37.8043514,-122.2711639
890,Al Ferrari,"July 6, 1933",New York,New York,40.7127753,-74.0059728
891,Rolando Ferreira,"May 24, 1964",Curtiba,Brazil,-25.4808762,-49.3044253
892,Duane Ferrell,"February 28, 1965",Baltimore,Maryland,39.2903848,-76.6121893
893,Yogi Ferrell,"May 9, 1993",Indianapolis,Indiana,39.768403,-86.158068
894,Arnie Ferrin,"July 29, 1925",Salt Lake City,Utah,40.7607793,-111.8910474
895,Bob Ferry,"May 31, 1937",St. Louis,Missouri,38.6270025,-90.19940419999999
896,Danny Ferry,"October 17, 1966",Hyattsville,Maryland,38.9559442,-76.9455301
897,Kyrylo Fesenko,"December 24, 1986",Dnepropetrovsk,Ukraine,48.464717,35.046183
898,Kenny Fields,"February 9, 1962",Iowa City,Iowa,41.6611277,-91.5301683
899,Landry Fields,"June 27, 1988",Long Beach,California,33.7700504,-118.1937395
900,Greg Fillmore,"March 7, 1947",Philadelphia,Pennsylvania,39.9525839,-75.1652215
901,Hank Finkel,"April 20, 1942",Union City,New Jersey,40.7795455,-74.02375119999999
902,Michael Finley,"March 6, 1973",Melrose Park,Illinois,41.9005865,-87.8567276
903,Dorian Finney-Smith,"May 4, 1993",Portsmouth,Virginia,36.8354258,-76.2982742
904,Matt Fish,"November 18, 1969",Washington,Iowa,41.30140770000001,-91.69164169999999
905,Derek Fisher,"August 9, 1974",Little Rock,Arkansas,34.7464809,-92.28959479999999
906,Gerald Fitch,"August 12, 1982",Columbus,Georgia,32.4609764,-84.9877094
907,Marcus Fizer,"August 10, 1978",Detroit,Michigan,42.331427,-83.0457538
908,Jerry Fleishman,"February 14, 1922",Brooklyn,New York,40.6781784,-73.9441579
909,Al Fleming,"April 5, 1954",Chicago,Illinois,41.8781136,-87.6297982
910,Vern Fleming,"February 4, 1962",New York,New York,40.7127753,-74.0059728
911,Luis Flores,"April 11, 1981",San Pedro de Macoris,Dominican Republic,18.46266,-69.3051234
912,Bruce Flowers,"June 13, 1957",Rochester,New York,43.15657789999999,-77.6088465
913,Sleepy Floyd,"March 6, 1960",Gastonia,North Carolina,35.262082,-81.18730049999999
914,Jonny Flynn,"February 6, 1989",Niagara Falls,New York,43.0962143,-79.0377388
915,Mike Flynn,"July 31, 1953",Casablanca,Morocco,33.5731104,-7.589843399999999
916,Larry Fogle,"March 19, 1953",Brooklyn,New York,40.6781784,-73.9441579
917,Jack Foley,"April 19, 1939",Worcester,Massachusetts,42.2625932,-71.8022934
918,Isaac Fontaine,"April 16, 1975",Sacramento,California,38.5815719,-121.4943996
919,Jeff Foote,"July 14, 1987",Lockwood,New York,42.0911853,-76.5499445
920,Bryn Forbes,"July 23, 1993",Lansing,Michigan,42.732535,-84.5555347
921,Gary Forbes,"February 25, 1985",Colon,Panama,9.359302,-79.89986080000001
922,Alphonso Ford,"October 31, 1971",Greenwood,Mississippi,33.5162315,-90.1795281
923,Chris Ford,"January 11, 1949",Atlantic City,New Jersey,39.3642834,-74.4229266
924,Don Ford,"December 31, 1952",Santa Barbara,California,34.4208305,-119.6981901
925,Phil Ford,"February 9, 1956",Rocky Mount,North Carolina,35.9382103,-77.7905339
926,Sherell Ford,"August 26, 1972",Baton Rouge,Louisiana,30.4514677,-91.18714659999999
927,Bayard Forrest,"July 8, 1954",San Jose,California,37.3382082,-121.8863286
928,Joseph Forte,"March 23, 1981",Atlanta,Georgia,33.7489954,-84.3879824
929,Courtney Fortson,"May 23, 1988",San Antonio,Texas,29.4241219,-98.49362819999999
930,Danny Fortson,"March 27, 1976",Philadelphia,Pennsylvania,39.9525839,-75.1652215
931,Fred Foster,"March 18, 1946",Springfield,Ohio,39.9242266,-83.8088171
932,Greg Foster,"October 3, 1968",Oakland,California,37.8043514,-122.2711639
933,Jeff Foster,"January 16, 1977",San Antonio,Texas,29.4241219,-98.49362819999999
934,Rod Foster,"October 10, 1960",Birmingham,Alabama,33.5185892,-86.8103567
935,Antonis Fotsis,"April 1, 1981",Athens,Greece,37.9838096,23.7275388
936,Evan Fournier,"October 29, 1992",Saint-Maurice,France,48.8205669,2.423655
937,Larry Foust,"June 24, 1928",Painesville,Ohio,41.7244885,-81.245657
938,Tremaine Fowlkes,"April 11, 1976",Los Angeles,California,34.0522342,-118.2436849
939,Jim Fox,"April 7, 1943",Atlanta,Georgia,33.7489954,-84.3879824
940,Rick Fox,"July 24, 1969",Toronto,Canada,43.653226,-79.3831843
941,Randy Foye,"September 24, 1983",Newark,New Jersey,40.735657,-74.1723667
942,Adonal Foyle,"March 9, 1975",Canouan,Saint Vincent and the Grenadines,12.7254927,-61.3239372
943,Richie Frahm,"August 14, 1977",Battle Ground,Washington,45.7807959,-122.5477298
944,Steve Francis,"February 21, 1977",Silver Spring,Maryland,38.99066570000001,-77.026088
945,Tellis Frank,"April 26, 1965",Gary,Indiana,41.6020403,-87.3371523
946,Jamaal Franklin,"July 21, 1991",Moreno Valley,California,33.9424658,-117.2296717
947,Tim Frazier,"November 1, 1990",Houston,Texas,29.7604267,-95.3698028
948,Will Frazier,"August 24, 1942",Minden,Louisiana,32.6154278,-93.2868354
949,Anthony Frederick,"December 7, 1964",Los Angeles,California,34.0522342,-118.2436849
950,Jimmer Fredette,"February 25, 1989",Glens Falls,New York,43.3095164,-73.6440058
951,Joel Freeland,"February 7, 1987",Farnham,United Kingdom,51.214321,-0.798802
952,Donnie Freeman,"July 18, 1944",Madison,Illinois,38.6825502,-90.1570536
953,Matt Freije,"October 2, 1981",Overland Park,Kansas,38.9822282,-94.6707917
954,Larry Friend,"April 14, 1935",Chicago,Illinois,41.8781136,-87.6297982
955,Channing Frye,"May 17, 1983",White Plains,New York,41.03398620000001,-73.7629097
956,Bernie Fryer,"December 25, 1949",Bellingham,Washington,48.7519112,-122.4786854
957,Hiram Fuller,"May 15, 1981",East St. Louis,Missouri,38.624514,-90.1506465
958,Tony Fuller,"September 4, 1958",Detroit,Michigan,42.331427,-83.0457538
959,Lawrence Funderburke,"December 15, 1970",Columbus,Ohio,39.9611755,-82.99879419999999
960,Terry Furlow,"October 18, 1954",Flint,Michigan,43.0125274,-83.6874562
961,Dan Gadzuric,"February 2, 1978",Den Haag,Netherlands,52.0704978,4.3006999
962,Deng Gai,"March 22, 1982",Wow,South Sudan,7.7091884,27.9834738
963,Elmer Gainer,"November 22, 1918",Chicago,Illinois,41.8781136,-87.6297982
964,Corey Gaines,"June 1, 1965",Los Angeles,California,34.0522342,-118.2436849
965,Reece Gaines,"January 7, 1981",Madison,Wisconsin,43.0730517,-89.4012302
966,Sundiata Gaines,"April 18, 1986",Jamaica,New York,40.702677,-73.7889689
967,Mike Gale,"July 18, 1950",Philadelphia,Pennsylvania,39.9525839,-75.1652215
968,Chad Gallagher,"May 30, 1969",Rockford,Illinois,42.2711311,-89.0939952
969,Danilo Gallinari,"August 8, 1988",Sant'Angelo Lodigiano,Italy,45.2323253,9.412306899999999
970,Langston Galloway,"December 9, 1991",Baton Rouge,Louisiana,30.4514677,-91.18714659999999
971,Dave Gambee,"April 16, 1937",Portland,Oregon,45.5051064,-122.6750261
972,Kevin Gamble,"November 13, 1965",Springfield,Illinois,39.78172130000001,-89.6501481
973,Jorge Garbajosa,"December 19, 1977",Madrid,Spain,40.4167754,-3.7037902
974,Ruben Garces,"October 17, 1973",Colon,Panama,9.359302,-79.89986080000001
975,Alex Garcia,"March 4, 1980",Orlandia,Brazil,-20.7172315,-47.8803602
976,Francisco Garcia,"December 31, 1981",Santo Domingo,Dominican Republic,18.4860575,-69.93121169999999
977,Thomas Gardner,"February 8, 1985",Portland,Oregon,45.5051064,-122.6750261
978,Vern Gardner,"May 14, 1925",Afton,Wyoming,42.7249282,-110.9318687
979,Patricio Garino,"May 17, 1993",Buenos Aires,Argentina,-34.6036844,-58.3815591
980,Gary Garland,"October 12, 1957",East Orange,New Jersey,40.767323,-74.2048677
981,Winston Garland,"December 19, 1964",Gary,Indiana,41.6020403,-87.3371523
982,Dick Garmaker,"October 29, 1932",Hibbing,Minnesota,47.42715459999999,-92.9376887
983,Chris Garner,"February 2, 1975",Memphis,Tennessee,35.1495343,-90.0489801
984,Kevin Garnett,"May 19, 1976",Mauldin,South Carolina,34.77873,-82.310119
985,Marlon Garnett,"July 3, 1975",Los Angeles,California,34.0522342,-118.2436849
986,Calvin Garrett,"July 11, 1956",Parsons,Tennessee,35.6497909,-88.1267024
987,Dean Garrett,"November 27, 1966",Los Angeles,California,34.0522342,-118.2436849
988,Rowland Garrett,"July 16, 1950",Canton,Mississippi,32.3546679,-89.3985283
989,Tom Garrick,"July 7, 1966",West Warwick,Rhode Island,41.70367110000001,-71.5215024
990,John Garris,"June 6, 1959",Bridgeport,Connecticut,41.1792258,-73.1894384
991,Kiwane Garris,"September 24, 1974",Chicago,Illinois,41.8781136,-87.6297982
992,Pat Garrity,"August 23, 1976",Las Vegas,Nevada,36.1699412,-115.1398296
993,Marc Gasol,"January 29, 1985",Barcelona,Spain,41.3850639,2.1734035
994,Pau Gasol,"July 6, 1980",Barcelona,Spain,41.3850639,2.1734035
995,Chris Gatling,"September 3, 1967",Elizabeth,New Jersey,40.6639916,-74.2107006
996,Kenny Gattison,"May 23, 1964",Wilmington,North Carolina,34.2103894,-77.8868117
997,Rudy Gay,"August 17, 1986",Brooklyn,New York,40.6781784,-73.9441579
998,Andrew Gaze,"July 24, 1965",Melbourne,Australia,-37.8136276,144.9630576
999,Michael Gbinije,"June 5, 1992",Hartford,Connecticut,41.7658043,-72.6733723
1000,Reggie Geary,"August 31, 1973",Trenton,New Jersey,40.2205824,-74.759717
1001,Alonzo Gee,"May 29, 1987",Riviera Beach,Florida,26.7753405,-80.0580969
1002,Matt Geiger,"September 10, 1969",Salem,Massachusetts,42.51954,-70.8967155
1003,Mickael Gelabale,"May 22, 1983",Pointe Noire,Guadeloupe,16.2195427,-61.75903289999999
1004,Devean George,"August 29, 1977",Minneapolis,Minnesota,44.977753,-93.2650108
1005,Jack George,"November 13, 1928",Swissvale,Pennsylvania,40.4236801,-79.88282749999999
1006,Paul George,"May 2, 1990",Palmdale,California,34.5794343,-118.1164613
1007,Tate George,"May 29, 1968",Newark,New Jersey,40.735657,-74.1723667
1008,Marcus Georges-Hunt,"March 28, 1994",Miami,Florida,25.7616798,-80.1917902
1009,Gus Gerard,"July 27, 1953",Uniontown,Pennsylvania,39.900076,-79.71643259999999
1010,Derrick Gervin,"March 28, 1963",Detroit,Michigan,42.331427,-83.0457538
1011,John Gianelli,"June 10, 1950",Stockton,California,37.9577016,-121.2907796
1012,Dick Gibbs,"December 20, 1948",Ames,Iowa,42.0307812,-93.63191309999999
1013,Daniel Gibson,"February 27, 1986",Houston,Texas,29.7604267,-95.3698028
1014,Jonathan Gibson,"November 8, 1987",West Covina,California,34.0686208,-117.9389526
1015,Mel Gibson,"December 30, 1940",Cordova,North Carolina,34.9129318,-79.82200259999999
1016,Mike Gibson,"October 27, 1960",Williamsburg County,South Carolina,33.62936060000001,-79.6502105
1017,Taj Gibson,"June 24, 1985",Brooklyn,New York,40.6781784,-73.9441579
1018,Trey Gilder,"January 24, 1985",Dallas,Texas,32.7766642,-96.79698789999999
1019,Eddie Gill,"August 16, 1978",Aurora,Colorado,39.7294319,-104.8319195
1020,Kendall Gill,"May 25, 1968",Chicago,Illinois,41.8781136,-87.6297982
1021,Ben Gillery,"September 19, 1965",Detroit,Michigan,42.331427,-83.0457538
1022,Armen Gilliam,"May 28, 1964",Pittsburgh,Pennsylvania,40.44062479999999,-79.9958864
1023,Herm Gilliam,"May 5, 1946",Winston-Salem,North Carolina,36.09985959999999,-80.244216
1024,Manu Ginobili,"July 28, 1977",Bahia Blanca,Argentina,-38.7183177,-62.2663478
1025,Gordan Giricek,"June 20, 1977",Zagreb,Croatia,45.8150108,15.9819189
1026,Jack Givens,"September 21, 1956",Lexington,Kentucky,38.0405837,-84.5037164
1027,Mickell Gladness,"July 26, 1986",Birmingham,Alabama,33.5185892,-86.8103567
1028,Gerald Glass,"November 12, 1967",Greenwood,Mississippi,33.5162315,-90.1795281
1029,Mike Glenn,"September 10, 1955",Rome,Georgia,34.257038,-85.1646726
1030,Georgi Glouchkov,"January 10, 1960",Triavna,Bulgaria,42.87665200000001,25.4988388
1031,Clarence Glover,"November 1, 1947",Horse Cave,Kentucky,37.179496,-85.9069175
1032,Dion Glover,"October 22, 1978",Marietta,Georgia,33.95260200000001,-84.5499327
1033,Andreas Glyniadakis,"August 21, 1981",Hania,Greece,35.5138298,24.0180367
1034,Mike Gminski,"August 3, 1959",Monroe,Connecticut,41.3325962,-73.2073358
1035,Rudy Gobert,"June 26, 1992",Saint-Quentin,France,49.847066,3.2874
1036,Dan Godfread,"June 14, 1967",Fort Wayne,Indiana,41.079273,-85.1393513
1037,Anthony Goldwire,"September 6, 1971",West Palm Beach,Florida,26.7153424,-80.0533746
1038,Ryan Gomes,"September 1, 1982",Waterbury,Connecticut,41.5581525,-73.0514965
1039,Glen Gondrezick,"August 30, 1955",Boulder,Colorado,40.0149856,-105.2705456
1040,Grant Gondrezick,"January 19, 1963",Boulder,Colorado,40.0149856,-105.2705456
1041,Drew Gooden,"September 24, 1981",Oakland,California,37.8043514,-122.2711639
1042,Steve Goodrich,"March 18, 1976",Philadelphia,Pennsylvania,39.9525839,-75.1652215
1043,Archie Goodwin,"August 17, 1994",Little Rock,Arkansas,34.7464809,-92.28959479999999
1044,Aaron Gordon,"September 16, 1995",San Jose,California,37.3382082,-121.8863286
1045,Ben Gordon,"April 4, 1983",London,United Kingdom,51.5073509,-0.1277583
1046,Drew Gordon,"July 12, 1990",San Jose,California,37.3382082,-121.8863286
1047,Eric Gordon,"December 25, 1988",Indianapolis,Indiana,39.768403,-86.158068
1048,Lancaster Gordon,"June 24, 1962",Jackson,Mississippi,32.2987573,-90.1848103
1049,Marcin Gortat,"February 17, 1984",Lodz,Poland,51.7592485,19.4559833
1050,Andrew Goudelock,"December 7, 1988",Gainesville,Georgia,34.2978794,-83.8240663
1051,Ricky Grace,"August 20, 1967",Dallas,Texas,32.7766642,-96.79698789999999
1052,Greg Graham,"November 26, 1970",Indianapolis,Indiana,39.768403,-86.158068
1053,Joey Graham,"June 11, 1982",Wilmington,Delaware,39.744655,-75.5483909
1054,Orlando Graham,"May 5, 1965",Montgomery,Alabama,32.3792233,-86.3077368
1055,Paul Graham,"November 28, 1967",Philadelphia,Pennsylvania,39.9525839,-75.1652215
1056,Stephen Graham,"June 11, 1982",Wilmington,Delaware,39.744655,-75.5483909
1057,Treveon Graham,"October 29, 1993",Washington,District of Columbia,38.9071923,-77.0368707
1058,Jim Grandholm,"October 4, 1960",Elkhart,Indiana,41.6819935,-85.9766671
1059,Ron Grandison,"July 9, 1964",Los Angeles,California,34.0522342,-118.2436849
1060,Danny Granger,"April 20, 1983",New Orleans,Louisiana,29.95106579999999,-90.0715323
1061,Stewart Granger,"October 27, 1961",Montreal,Canada,45.5016889,-73.567256
1062,Brian Grant,"March 5, 1972",Columbus,Ohio,39.9611755,-82.99879419999999
1063,Bud Grant,"May 20, 1927",Superior,Wisconsin,46.7207737,-92.10407959999999
1064,Gary Grant,"April 21, 1965",Canton,Ohio,40.79894729999999,-81.378447
1065,Greg Grant,"August 29, 1966",Trenton,New Jersey,40.2205824,-74.759717
1066,Harvey Grant,"July 4, 1965",Augusta,Georgia,33.4734978,-82.0105148
1067,Horace Grant,"July 4, 1965",Augusta,Georgia,33.4734978,-82.0105148
1068,Jerami Grant,"March 12, 1994",Portland,Oregon,45.5051064,-122.6750261
1069,Josh Grant,"August 7, 1967",Salt Lake City,Utah,40.7607793,-111.8910474
1070,Paul Grant,"January 6, 1974",Pittsburgh,Pennsylvania,40.44062479999999,-79.9958864
1071,Travis Grant,"January 1, 1950",Clayton,Alabama,31.8782162,-85.44966269999999
1072,Don Grate,"August 27, 1923",Greenfield,Ohio,39.3520084,-83.38269280000002
1073,Butch Graves,"January 5, 1962",Scarsdale,New York,41.0050977,-73.7845768
1074,Aaron Gray,"December 7, 1984",Tarzana,California,34.1494848,-118.5506158
1075,Devin Gray,"May 31, 1972",Baltimore,Maryland,39.2903848,-76.6121893
1076,Ed Gray,"September 27, 1975",Riverside,California,33.9806005,-117.3754942
1077,Evric Gray,"December 13, 1969",Bloomington,California,34.07029,-117.3958797
1078,Leonard Gray,"December 19, 1951",Kansas City,Kansas,39.11553139999999,-94.62678729999999
1079,Stuart Gray,"May 27, 1963",Panama Canal Zone,Panama,8.9536419,-79.5376773
1080,Sylvester Gray,"July 8, 1967",Millington,Tennessee,35.3414744,-89.8973084
1081,Jeff Grayer,"December 17, 1965",Flint,Michigan,43.0125274,-83.6874562
1082,Devin Green,"October 25, 1982",Columbus,Ohio,39.9611755,-82.99879419999999
1083,Draymond Green,"March 4, 1990",Saginaw,Michigan,43.4194699,-83.9508068
1084,Erick Green,"May 9, 1991",Inglewood,California,33.9616801,-118.3531311
1085,Gerald Green,"January 26, 1986",Houston,Texas,29.7604267,-95.3698028
1086,JaMychal Green,"June 21, 1990",Montgomery,Alabama,32.3792233,-86.3077368
1087,Johnny Green,"December 8, 1933",Dayton,Ohio,39.7589478,-84.1916069
1088,Ken Green,"September 19, 1959",Newman,Georgia,33.3806716,-84.79965729999999
1089,Lamar Green,"March 22, 1947",Birmingham,Alabama,33.5185892,-86.8103567
1090,Litterial Green,"March 7, 1970",Pascagoula,Mississippi,30.3657552,-88.5561272
1091,Luther Green,"November 13, 1946",New York,New York,40.7127753,-74.0059728
1092,Mike Green,"August 6, 1951",McComb,Mississippi,31.2437872,-90.4531535
1093,Rickey Green,"August 18, 1954",Chicago,Illinois,41.8781136,-87.6297982
1094,Sean Green,"February 2, 1970",Santa Monica,California,34.0194543,-118.4911912
1095,Si Green,"August 20, 1933",New York,New York,40.7127753,-74.0059728
1096,Steve Green,"October 4, 1953",Madison,Wisconsin,43.0730517,-89.4012302
1097,Taurean Green,"November 28, 1986",Fort Lauderdale,Florida,26.1224386,-80.13731740000001
1098,Tommie Green,"April 8, 1956",Baton Rouge,Louisiana,30.4514677,-91.18714659999999
1099,Willie Green,"July 28, 1981",Detroit,Michigan,42.331427,-83.0457538
1100,Donte Greene,"February 21, 1988",Munich,Germany,48.1351253,11.5819805
1101,Orien Greene,"February 4, 1982",Gainesville,Florida,29.6516344,-82.32482619999999
1102,Dave Greenwood,"May 27, 1957",Lynwood,California,33.930293,-118.2114603
1103,Lynn Greer,"October 23, 1979",Philadelphia,Pennsylvania,39.9525839,-75.1652215
1104,Gary Gregor,"August 13, 1945",Charlestown,West Virginia,38.3498195,-81.6326234
1105,Claude Gregory,"December 26, 1958",Washington,District of Columbia,38.9071923,-77.0368707
1106,John Greig,"April 28, 1961",Sacramento,California,38.5815719,-121.4943996
1107,Norm Grekin,"June 22, 1930",Philadelphia,Pennsylvania,39.9525839,-75.1652215
1108,Kevin Grevey,"May 12, 1953",Hamilton,Ohio,39.3995008,-84.5613355
1109,Adrian Griffin,"July 4, 1974",Wichita,Kansas,37.68717609999999,-97.33005299999999
1110,Blake Griffin,"March 16, 1989",Oklahoma City,Oklahoma,35.4675602,-97.5164276
1111,Eddie Griffin,"May 30, 1982",Philadelphia,Pennsylvania,39.9525839,-75.1652215
1112,Greg Griffin,"September 6, 1952",Cleveland,Ohio,41.49932,-81.6943605
1113,Paul Griffin,"January 20, 1954",Shelby,Michigan,43.6086194,-86.3639633
1114,Taylor Griffin,"April 18, 1986",Oklahoma City,Oklahoma,35.4675602,-97.5164276
1115,Darrell Griffith,"June 16, 1958",Louisville,Kentucky,38.2526647,-85.7584557
1116,Chuck Grigsby,"August 15, 1928",Dayton,Ohio,39.7589478,-84.1916069
1117,Derek Grimm,"August 3, 1974",Peoria,Illinois,40.6936488,-89.5889864
1118,Dick Groat,"November 4, 1930",Wilkinsburg,Pennsylvania,40.4417355,-79.8819942
1119,Bob Gross,"August 3, 1953",San Pedro,California,33.7360619,-118.2922461
1120,Alex Groza,"October 7, 1926",Martins Ferry,Ohio,40.0959055,-80.724526
1121,Anthony Grundy,"April 15, 1979",Louisville,Kentucky,38.2526647,-85.7584557
1122,Ernie Grunfeld,"April 24, 1955",Satu-Mare,Romania,47.8016702,22.8575926
1123,Gene Guarilia,"September 13, 1937",Duryea,Pennsylvania,41.3513207,-75.76243869999999
1124,Petur Gudmundsson,"October 30, 1958",Reykjavik,Iceland,64.146582,-21.9426354
1125,Tom Gugliotta,"December 19, 1969",Huntington Station,New York,40.8534318,-73.4115091
1126,Andres Guibert,"October 28, 1968",Havana,Cuba,23.1135925,-82.3665956
1127,Jay Guidinger,"August 18, 1969",Milwaukee,Wisconsin,43.0389025,-87.9064736
1128,Jorge Gutierrez,"December 27, 1988",Chihuahua,Mexico,28.6329957,-106.0691004
1129,Rudy Hackett,"May 10, 1953",Mount Vernon,New York,40.9125992,-73.8370786
1130,Hamed Haddadi,"May 19, 1985",Ahvaz,Islamic Republic of Iran,31.3183272,48.6706187
1131,Scott Haffner,"February 2, 1966",Terre Haute,Indiana,39.4667034,-87.41390919999999
1132,Glenn Hagan,"June 25, 1955",Sanford,Florida,28.8028612,-81.269453
1133,Happy Hairston,"May 31, 1942",Winston-Salem,North Carolina,36.09985959999999,-80.244216
1134,Lindsay Hairston,"December 8, 1951",Detroit,Michigan,42.331427,-83.0457538
1135,Malik Hairston,"February 23, 1987",Detroit,Michigan,42.331427,-83.0457538
1136,Marcus Haislip,"December 22, 1980",Lewisburg,Tennessee,35.4492404,-86.7888887
1137,Chick Halbert,"February 27, 1919",Albany,Texas,32.723452,-99.29730049999999
1138,Bruce Hale,"August 30, 1918",Medford,Oregon,42.3265152,-122.8755949
1139,Jack Haley,"January 27, 1964",Long Beach,California,33.7700504,-118.1937395
1140,Shaler Halimon,"March 30, 1945",Tampa,Florida,27.950575,-82.4571776
1141,Mike Hall,"June 5, 1984",Chicago,Illinois,41.8781136,-87.6297982
1142,Darvin Ham,"July 23, 1973",Saginaw,Michigan,43.4194699,-83.9508068
1143,Steve Hamer,"November 13, 1973",Memphis,Tennessee,35.1495343,-90.0489801
1144,Dennis Hamilton,"May 8, 1944",Huntington Beach,California,33.6594835,-117.9988026
1145,Justin Hamilton,"April 1, 1990",Newport Beach,California,33.6188829,-117.9298493
1146,Richard Hamilton,"February 14, 1978",Coatesville,Pennsylvania,39.9831616,-75.8238355
1147,Roy Hamilton,"July 20, 1957",Los Angeles,California,34.0522342,-118.2436849
1148,Steve Hamilton,"November 30, 1935",Columbia,Kentucky,37.102841,-85.3063504
1149,Tang Hamilton,"May 26, 1978",Jackson,Mississippi,32.2987573,-90.1848103
1150,Thomas Hamilton,"April 3, 1975",Chicago,Illinois,41.8781136,-87.6297982
1151,Zendon Hamilton,"April 27, 1975",Floral Park,New York,40.7237133,-73.7048532
1152,Geert Hammink,"July 12, 1969",Didam,Netherlands,51.9411937,6.129859100000001
1153,Tom Hammonds,"March 27, 1967",Fort Walton,Florida,30.42007079999999,-86.6170308
1154,Darrin Hancock,"November 3, 1971",Birmingham,Alabama,33.5185892,-86.8103567
1155,Ben Handlogten,"November 16, 1973",Grand Rapids,Michigan,42.9633599,-85.6680863
1156,Phil Hankinson,"July 26, 1951",Augusta,Georgia,33.4734978,-82.0105148
1157,Ben Hansbrough,"December 23, 1987",Poplar Bluff,Missouri,36.7569994,-90.392888
1158,Tyler Hansbrough,"November 3, 1985",Poplar Bluff,Missouri,36.7569994,-90.392888
1159,Bob Hansen,"January 18, 1961",Des Moines,Iowa,41.5868353,-93.6249593
1160,Glenn Hansen,"April 21, 1952",Devils Lake,North Dakota,48.112779,-98.86512019999999
1161,Lars Hansen,"September 14, 1954",Copenhagen,Denmark,55.6760968,12.5683372
1162,Travis Hansen,"April 15, 1978",Provo,Utah,40.2338438,-111.6585337
1163,Reggie Hanson,"October 6, 1968",Charlotte,North Carolina,35.2270869,-80.8431267
1164,Bill Hanzlik,"December 6, 1957",Middletown,Ohio,39.5150576,-84.39827629999999
1165,Luke Harangody,"January 2, 1988",Decatur,Illinois,39.8403147,-88.9548001
1166,Anfernee Hardaway,"July 18, 1971",Memphis,Tennessee,35.1495343,-90.0489801
1167,Tim Hardaway,"September 1, 1966",Chicago,Illinois,41.8781136,-87.6297982
1168,James Harden,"August 26, 1989",Los Angeles,California,34.0522342,-118.2436849
1169,Charlie Hardnett,"September 13, 1938",Atlanta,Georgia,33.7489954,-84.3879824
1170,Alan Hardy,"May 25, 1957",Detroit,Michigan,42.331427,-83.0457538
1171,James Hardy,"December 1, 1956",Knoxville,Alabama,32.9923471,-87.7905674
1172,John Hargis,"August 20, 1920",Nacogdoches,Texas,31.6035129,-94.6554874
1173,Maurice Harkless,"May 11, 1993",Queens,New York,40.7282239,-73.7948516
1174,Jerry Harkness,"May 7, 1940",New York,New York,40.7127753,-74.0059728
1175,Jerome Harmon,"February 6, 1969",Gary,Indiana,41.6020403,-87.3371523
1176,Derek Harper,"October 13, 1961",Elberton,Georgia,34.1112226,-82.8670839
1177,Justin Harper,"August 30, 1989",Richmond,Virginia,37.5407246,-77.4360481
1178,Mike Harper,"December 9, 1957",Chicago,Illinois,41.8781136,-87.6297982
1179,Ron Harper,"January 20, 1964",Dayton,Ohio,39.7589478,-84.1916069
1180,Matt Harpring,"May 31, 1976",Cincinnati,Ohio,39.1031182,-84.5120196
1181,Montrezl Harrell,"January 26, 1994",Tarboro,North Carolina,35.8968236,-77.5358049
1182,Josh Harrellson,"February 12, 1989",St. Charles,Missouri,38.7881062,-90.4974359
1183,Adam Harrington,"July 5, 1980",Bernardston,Massachusetts,42.6710048,-72.5483277
1184,Al Harrington,"February 17, 1980",Orange,New Jersey,40.7706187,-74.2326478
1185,Junior Harrington,"October 2, 1980",Wagram,North Carolina,34.8879396,-79.3661515
1186,Othella Harrington,"January 31, 1974",Jackson,Mississippi,32.2987573,-90.1848103
1187,Bernie Harris,"November 26, 1950",Roanoke,Virginia,37.2709704,-79.9414266
1188,Bob Harris,"March 16, 1927",Linden,Tennessee,35.6172917,-87.8394704
1189,Chris Harris,"August 11, 1933",Southampton,United Kingdom,50.90970040000001,-1.4043509
1190,Devin Harris,"February 27, 1983",Milwaukee,Wisconsin,43.0389025,-87.9064736
1191,Elias Harris,"July 6, 1989",Speyer,Germany,49.3172765,8.441217199999999
1192,Gary Harris,"September 14, 1994",Fishers,Indiana,39.9567548,-86.01335
1193,Joe Harris,"September 6, 1991",Chelan,Washington,47.8408323,-120.0168079
1194,Lucious Harris,"December 18, 1970",Los Angeles,California,34.0522342,-118.2436849
1195,Manny Harris,"September 21, 1989",Detroit,Michigan,42.331427,-83.0457538
1196,Mike Harris,"June 15, 1983",Hillsboro,Texas,32.0109886,-97.13000609999999
1197,Steve Harris,"October 15, 1963",Kansas City,Missouri,39.0997265,-94.5785667
1198,Terrel Harris,"August 10, 1987",Dallas,Texas,32.7766642,-96.79698789999999
1199,Tony Harris,"May 13, 1967",Monroe,Louisiana,32.5093109,-92.1193012
1200,Aaron Harrison,"October 28, 1994",San Antonio,Texas,29.4241219,-98.49362819999999
1201,Andrew Harrison,"October 28, 1994",San Antonio,Texas,29.4241219,-98.49362819999999
1202,David Harrison,"August 15, 1982",Nashville,Tennessee,36.1626638,-86.7816016
1203,Jason Hart,"April 29, 1978",Los Angeles,California,34.0522342,-118.2436849
1204,Antonio Harvey,"July 6, 1970",Pascagoula,Mississippi,30.3657552,-88.5561272
1205,Donnell Harvey,"August 26, 1980",Shellman,Georgia,31.7562765,-84.6151965
1206,Scott Haskin,"September 19, 1970",Riverside,California,33.9806005,-117.3754942
1207,Clem Haskins,"July 11, 1943",Campbellsville,Kentucky,37.3433974,-85.3419069
1208,Udonis Haslem,"June 9, 1980",Miami,Florida,25.7616798,-80.1917902
1209,Trenton Hassell,"March 4, 1979",Clarksville,Tennessee,36.5297706,-87.3594528
1210,Joe Hassett,"September 11, 1955",Providence,Rhode Island,41.8239891,-71.4128343
1211,Scott Hastings,"June 3, 1960",Independence,Kansas,37.2242358,-95.7083131
1212,Kirk Haston,"March 10, 1979",Loblesville,Tennessee,35.7720103,-87.78391289999999
1213,Vern Hatton,"January 13, 1936",Owingsville,Kentucky,38.1448015,-83.7640847
1214,Spencer Hawes,"April 28, 1988",Seattle,Washington,47.6062095,-122.3320708
1215,Steve Hawes,"May 26, 1950",Seattle,Washington,47.6062095,-122.3320708
1216,Hersey Hawkins,"September 29, 1966",Chicago,Illinois,41.8781136,-87.6297982
1217,Juaquin Hawkins,"July 2, 1973",Gardena,California,33.8883487,-118.3089624
1218,Marshall Hawkins,"August 3, 1924",Huntington,West Virginia,38.4192496,-82.44515400000002
1219,Michael Hawkins,"October 28, 1972",Canton,Ohio,40.79894729999999,-81.378447
1220,Robert Hawkins,"June 30, 1954",Detroit,Michigan,42.331427,-83.0457538
1221,Tom Hawkins,"December 22, 1936",Chicago,Illinois,41.8781136,-87.6297982
1222,Nate Hawthorne,"January 15, 1950",Mt. Vernon,Illinois,38.3172714,-88.9031201
1223,Chuck Hayes,"June 11, 1983",San Leandro,California,37.7257663,-122.1568554
1224,Jarvis Hayes,"August 9, 1981",Atlanta,Georgia,33.7489954,-84.3879824
1225,Steve Hayes,"August 2, 1955",American Falls,Idaho,42.7860226,-112.8544377
1226,Gordon Hayward,"March 23, 1990",Indianapolis,Indiana,39.768403,-86.158068
1227,Lazar Hayward,"November 26, 1986",Buffalo,New York,42.88644679999999,-78.8783689
1228,Brendan Haywood,"November 27, 1979",New York,New York,40.7127753,-74.0059728
1229,Luther Head,"November 26, 1982",Chicago,Illinois,41.8781136,-87.6297982
1230,Shane Heal,"September 6, 1970",Melbourne,Australia,-37.8136276,144.9630576
1231,Gar Heard,"May 3, 1948",Hogansville,Georgia,33.1730399,-84.91478359999999
1232,Herm Hedderick,"January 10, 1930",Erie,Pennsylvania,42.12922409999999,-80.085059
1233,Alvin Heggs,"December 12, 1967",Jacksonville,Florida,30.3321838,-81.65565099999999
1234,Dick Hemric,"August 29, 1933",Jonesville,North Carolina,36.2393013,-80.84451519999999
1235,Alan Henderson,"December 2, 1972",Indianapolis,Indiana,39.768403,-86.158068
1236,Cedric Henderson,"October 3, 1965",Marietta,Georgia,33.95260200000001,-84.5499327
1237,Dave Henderson,"July 21, 1964",Henderson,North Carolina,36.3294305,-78.39920099999999
1238,Gerald Henderson,"January 16, 1956",Richmond,Virginia,37.5407246,-77.4360481
1239,Jerome Henderson,"October 5, 1959",Los Angeles,California,34.0522342,-118.2436849
1240,Kevin Henderson,"March 22, 1964",Baltimore,Maryland,39.2903848,-76.6121893
1241,Tom Henderson,"January 26, 1952",Newberry,South Carolina,34.2745833,-81.6187178
1242,Mark Hendrickson,"June 23, 1974",Mount Vernon,Washington,48.4201105,-122.3374543
1243,Bill Henry,"December 27, 1924",Dallas,Texas,32.7766642,-96.79698789999999
1244,Carl Henry,"August 16, 1960",Hollis,Oklahoma,34.6883948,-99.9120456
1245,Conner Henry,"July 21, 1963",Claremont,California,34.0966764,-117.7197785
1246,Skeeter Henry,"December 8, 1967",Dallas,Texas,32.7766642,-96.79698789999999
1247,Xavier Henry,"March 15, 1991",Gent,Belgium,51.0543422,3.7174243
1248,John Henson,"December 28, 1990",Greensboro,North Carolina,36.0726354,-79.7919754
1249,Steve Henson,"February 2, 1968",Junction City,Kansas,39.0286093,-96.83139779999999
1250,Kleggie Hermsen,"March 12, 1923",Hill City,Minnesota,46.9932846,-93.5985615
1251,Juan Hernangomez,"September 28, 1995",Madrid,Spain,40.4167754,-3.7037902
1252,Willy Hernangomez,"May 27, 1994",Madrid,Spain,40.4167754,-3.7037902
1253,Chris Herren,"September 27, 1975",Fall River,Massachusetts,41.7014912,-71.1550451
1254,Carl Herrera,"December 14, 1966",Trinidad,Trinidad and Tobago,10.3757217,-61.23355919999999
1255,Walter Herrmann,"June 26, 1979",Venado Tuerto,Argentina,-33.7455566,-61.9690161
1256,Keith Herron,"June 14, 1956",Memphis,Tennessee,35.1495343,-90.0489801
1257,Sonny Hertzberg,"July 29, 1922",Brooklyn,New York,40.6781784,-73.9441579
1258,Fred Hetzel,"July 21, 1942",Washington,District of Columbia,38.9071923,-77.0368707
1259,Bill Hewitt,"August 8, 1944",Cambridge,Massachusetts,42.3736158,-71.10973349999999
